,Name,Applicants total,Admissions total,Enrolled total,Percent of freshmen submitting SAT scores,Percent of freshmen submitting ACT scores,SAT Critical Reading 25th percentile score,SAT Critical Reading 75th percentile score,SAT Math 25th percentile score,SAT Math 75th percentile score,SAT Writing 25th percentile score,SAT Writing 75th percentile score,ACT Composite 25th percentile score,ACT Composite 75th percentile score,State abbreviation,Geographic region,Level of institution,Control of institution,"Graduation rate - Bachelor degree within 6 years, total",Percent of undergraduate enrollment that are women,CITY,STABBR,ZIP,LONGITUD,LATITUDE
0,Alabama A & M University,6142.0,5521.0,1104.0,15.0,88.0,370.0,450.0,350.0,450.0,0.0,0.0,15.0,19.0,Alabama,Southeast AL AR FL GA KY LA MS NC SC TN VA WV,Four or more years,Public,29.0,51.0,Normal,AL,35762,-86.568502,34.783367999999996
1,University of Alabama at Birmingham,5689.0,4934.0,1773.0,6.0,93.0,520.0,640.0,520.0,650.0,0.0,0.0,22.0,28.0,Alabama,Southeast AL AR FL GA KY LA MS NC SC TN VA WV,Four or more years,Public,53.0,58.0,Birmingham,AL,35294-0110,-86.799345,33.505697
2,Amridge University,0.0,0.0,0.0,0.0,0.0,0.0,0.0,0.0,0.0,0.0,0.0,0.0,0.0,Alabama,Southeast AL AR FL GA KY LA MS NC SC TN VA WV,Four or more years,Private not-for-profit,67.0,61.0,Montgomery,AL,36117-3553,-86.17401,32.362609
3,University of Alabama in Huntsville,2054.0,1656.0,651.0,34.0,94.0,510.0,640.0,510.0,650.0,0.0,0.0,23.0,29.0,Alabama,Southeast AL AR FL GA KY LA MS NC SC TN VA WV,Four or more years,Public,48.0,44.0,Huntsville,AL,35899,-86.640449,34.724557
4,Alabama State University,10245.0,5251.0,1479.0,18.0,87.0,380.0,480.0,370.0,480.0,0.0,0.0,15.0,19.0,Alabama,Southeast AL AR FL GA KY LA MS NC SC TN VA WV,Four or more years,Public,25.0,59.0,Montgomery,AL,36104-0271,-86.295677,32.364317
5,The University of Alabama,30975.0,17515.0,6454.0,23.0,76.0,490.0,620.0,500.0,640.0,480.0,600.0,22.0,30.0,Alabama,Southeast AL AR FL GA KY LA MS NC SC TN VA WV,Four or more years,Public,67.0,54.0,Tuscaloosa,AL,35487-0100,-87.545978,33.211875
6,Athens State University,0.0,0.0,0.0,0.0,0.0,0.0,0.0,0.0,0.0,0.0,0.0,0.0,0.0,Alabama,Southeast AL AR FL GA KY LA MS NC SC TN VA WV,Four or more years,Public,0.0,65.0,Athens,AL,35611,-86.964698,34.806793
7,Auburn University at Montgomery,1958.0,1639.0,579.0,0.0,54.0,0.0,0.0,0.0,0.0,0.0,0.0,18.0,23.0,Alabama,Southeast AL AR FL GA KY LA MS NC SC TN VA WV,Four or more years,Public,27.0,62.0,Montgomery,AL,36117-3596,-86.177544,32.36736
8,Auburn University,15745.0,13027.0,3726.0,17.0,83.0,520.0,620.0,540.0,650.0,510.0,620.0,24.0,30.0,Alabama,Southeast AL AR FL GA KY LA MS NC SC TN VA WV,Four or more years,Public,68.0,49.0,Auburn,AL,36849,-85.488258,32.599378
9,Faulkner University,0.0,0.0,0.0,0.0,0.0,0.0,0.0,0.0,0.0,0.0,0.0,0.0,0.0,Alabama,Southeast AL AR FL GA KY LA MS NC SC TN VA WV,Four or more years,Private not-for-profit,23.0,63.0,Montgomery,AL,36109-3390,-86.21641,32.384181
10,Huntingdon College,1470.0,923.0,261.0,16.0,93.0,420.0,500.0,420.0,540.0,0.0,0.0,19.0,24.0,Alabama,Southeast AL AR FL GA KY LA MS NC SC TN VA WV,Four or more years,Private not-for-profit,43.0,50.0,Montgomery,AL,36106-2148,-86.284366,32.351034000000006
11,Jacksonville State University,3083.0,2567.0,1158.0,18.0,89.0,430.0,540.0,420.0,540.0,0.0,0.0,19.0,26.0,Alabama,Southeast AL AR FL GA KY LA MS NC SC TN VA WV,Four or more years,Public,31.0,58.0,Jacksonville,AL,36265,-85.765321,33.822938
12,Judson College,268.0,198.0,68.0,10.0,94.0,550.0,640.0,500.0,600.0,530.0,610.0,19.0,24.0,Alabama,Southeast AL AR FL GA KY LA MS NC SC TN VA WV,Four or more years,Private not-for-profit,41.0,95.0,Marion,AL,36756,-87.315206,32.629253000000006
13,University of West Alabama,462.0,460.0,380.0,0.0,100.0,0.0,0.0,0.0,0.0,0.0,0.0,18.0,22.0,Alabama,Southeast AL AR FL GA KY LA MS NC SC TN VA WV,Four or more years,Public,30.0,57.0,Livingston,AL,35470,-88.186329,32.588132
14,Miles College,0.0,0.0,0.0,0.0,0.0,0.0,0.0,0.0,0.0,0.0,0.0,0.0,0.0,Alabama,Southeast AL AR FL GA KY LA MS NC SC TN VA WV,Four or more years,Private not-for-profit,22.0,48.0,Fairfield,AL,35064-2621,-86.908751,33.482442
15,University of Mobile,866.0,617.0,259.0,13.0,87.0,470.0,610.0,470.0,680.0,0.0,0.0,20.0,25.0,Alabama,Southeast AL AR FL GA KY LA MS NC SC TN VA WV,Four or more years,Private not-for-profit,49.0,67.0,Mobile,AL,36613-2842,-88.128934,30.793246999999997
16,University of Montevallo,1385.0,1209.0,531.0,3.0,96.0,495.0,613.0,465.0,550.0,440.0,580.0,20.0,26.0,Alabama,Southeast AL AR FL GA KY LA MS NC SC TN VA WV,Four or more years,Public,45.0,66.0,Montevallo,AL,35115-6000,-86.865099,33.10625
17,University of North Alabama,2542.0,2057.0,970.0,3.0,96.0,413.0,565.0,433.0,530.0,0.0,0.0,19.0,25.0,Alabama,Southeast AL AR FL GA KY LA MS NC SC TN VA WV,Four or more years,Public,32.0,57.0,Florence,AL,35632-0001,-87.681361,34.806738
18,Oakwood University,2728.0,937.0,409.0,47.0,58.0,410.0,513.0,400.0,510.0,0.0,0.0,17.0,22.0,Alabama,Southeast AL AR FL GA KY LA MS NC SC TN VA WV,Four or more years,Private not-for-profit,37.0,57.0,Huntsville,AL,35896,-86.65270500000001,34.756344
19,Samford University,3447.0,2653.0,765.0,36.0,84.0,500.0,630.0,510.0,610.0,500.0,610.0,23.0,28.0,Alabama,Southeast AL AR FL GA KY LA MS NC SC TN VA WV,Four or more years,Private not-for-profit,69.0,65.0,Birmingham,AL,35229-2240,-86.791799,33.464128
20,University of South Alabama,4814.0,4142.0,1878.0,8.0,92.0,440.0,550.0,435.0,565.0,420.0,520.0,20.0,26.0,Alabama,Southeast AL AR FL GA KY LA MS NC SC TN VA WV,Four or more years,Public,33.0,57.0,Mobile,AL,36688-0002,-88.17871099999999,30.696033
21,Spring Hill College,6596.0,3052.0,431.0,20.0,92.0,480.0,600.0,480.0,600.0,480.0,610.0,21.0,27.0,Alabama,Southeast AL AR FL GA KY LA MS NC SC TN VA WV,Four or more years,Private not-for-profit,56.0,60.0,Mobile,AL,36608-1791,-88.138199,30.694751
22,Stillman College,4121.0,1772.0,257.0,6.0,59.0,350.0,450.0,383.0,438.0,0.0,0.0,17.0,20.0,Alabama,Southeast AL AR FL GA KY LA MS NC SC TN VA WV,Four or more years,Private not-for-profit,26.0,49.0,Tuscaloosa,AL,35401,-87.585278,33.200006
23,Talladega College,0.0,0.0,0.0,0.0,0.0,0.0,0.0,0.0,0.0,0.0,0.0,0.0,0.0,Alabama,Southeast AL AR FL GA KY LA MS NC SC TN VA WV,Four or more years,Private not-for-profit,82.0,53.0,Talladega,AL,35160,-86.11270400000001,33.433471999999995
24,Troy University,5946.0,4056.0,2087.0,7.0,38.0,0.0,0.0,0.0,0.0,0.0,0.0,18.0,24.0,Alabama,Southeast AL AR FL GA KY LA MS NC SC TN VA WV,Four or more years,Public,36.0,62.0,Troy,AL,36082-0001,-85.957094,31.800672
25,Tuskegee University,10022.0,3519.0,650.0,43.0,75.0,400.0,510.0,400.0,520.0,0.0,0.0,18.0,22.0,Alabama,Southeast AL AR FL GA KY LA MS NC SC TN VA WV,Four or more years,Private not-for-profit,44.0,58.0,Tuskegee,AL,36088-1920,-85.708492,32.4309
26,University of Alaska Anchorage,0.0,0.0,0.0,0.0,0.0,0.0,0.0,0.0,0.0,0.0,0.0,0.0,0.0,Alaska,Far West AK CA HI NV OR WA,Four or more years,Public,28.0,59.0,Anchorage,AK,99508,-149.82619,61.190163
27,University of Alaska Fairbanks,0.0,0.0,0.0,0.0,0.0,0.0,0.0,0.0,0.0,0.0,0.0,0.0,0.0,Alaska,Far West AK CA HI NV OR WA,Four or more years,Public,37.0,57.0,Fairbanks,AK,99775,-147.823146,64.85755999999999
28,University of Alaska Southeast,0.0,0.0,0.0,0.0,0.0,0.0,0.0,0.0,0.0,0.0,0.0,0.0,0.0,Alaska,Far West AK CA HI NV OR WA,Four or more years,Public,12.0,64.0,Juneau,AK,99801-8697,-134.63825500000002,58.384845999999996
29,Alaska Pacific University,494.0,185.0,33.0,74.0,26.0,465.0,575.0,450.0,510.0,435.0,568.0,20.0,24.0,Alaska,Far West AK CA HI NV OR WA,Four or more years,Private not-for-profit,40.0,66.0,Anchorage,AK,99508,-149.804168,61.190968000000005
30,University of Arizona,26329.0,20251.0,7401.0,66.0,52.0,483.0,600.0,500.0,630.0,480.0,590.0,21.0,27.0,Arizona,Southwest AZ NM OK TX,Four or more years,Public,61.0,52.0,Tucson,AZ,85721-0066,-110.95081499999999,32.232671999999994
31,Embry-Riddle Aeronautical University-Prescott,1689.0,1334.0,448.0,71.0,53.0,500.0,630.0,540.0,650.0,490.0,600.0,23.0,29.0,Arizona,Southwest AZ NM OK TX,Four or more years,Private not-for-profit,59.0,21.0,Prescott,AZ,86301-3720,-112.44974099999999,34.616766
32,Northern Arizona University,33989.0,31057.0,4772.0,64.0,50.0,470.0,580.0,470.0,580.0,450.0,560.0,20.0,25.0,Arizona,Southwest AZ NM OK TX,Four or more years,Public,49.0,58.0,Flagstaff,AZ,86011-4092,-111.653724,35.188449
33,Ottawa University-Phoenix,0.0,0.0,0.0,0.0,0.0,0.0,0.0,0.0,0.0,0.0,0.0,0.0,0.0,Arizona,Southwest AZ NM OK TX,Four or more years,Private not-for-profit,0.0,69.0,Phoenix,AZ,85021,-112.113001,33.572173
34,Prescott College,399.0,291.0,49.0,79.0,21.0,480.0,640.0,420.0,600.0,490.0,580.0,22.0,30.0,Arizona,Southwest AZ NM OK TX,Four or more years,Private not-for-profit,38.0,55.0,Prescott,AZ,86301,-112.477185,34.5452
35,Arizona Christian University,344.0,209.0,90.0,39.0,57.0,440.0,580.0,455.0,600.0,0.0,0.0,20.0,25.0,Arizona,Southwest AZ NM OK TX,Four or more years,Private not-for-profit,47.0,50.0,Glendale,AZ,85306-3216,-112.181776,33.622952000000005
36,University of Arkansas at Little Rock,1443.0,761.0,667.0,3.0,82.0,360.0,480.0,410.0,480.0,0.0,0.0,20.0,27.0,Arkansas,Southeast AL AR FL GA KY LA MS NC SC TN VA WV,Four or more years,Public,21.0,59.0,Little Rock,AR,72204,-92.33977800000001,34.723254
37,Arkansas Baptist College,0.0,0.0,0.0,0.0,0.0,0.0,0.0,0.0,0.0,0.0,0.0,0.0,0.0,Arkansas,Southeast AL AR FL GA KY LA MS NC SC TN VA WV,Four or more years,Private not-for-profit,9.0,37.0,Little Rock,AR,72202-6068,-92.290555,34.734751
38,Lyon College,1309.0,772.0,174.0,9.0,95.0,470.0,600.0,540.0,610.0,460.0,600.0,22.0,28.0,Arkansas,Southeast AL AR FL GA KY LA MS NC SC TN VA WV,Four or more years,Private not-for-profit,50.0,54.0,Batesville,AR,72501,-91.625354,35.777619
39,University of Arkansas,18908.0,11076.0,4339.0,27.0,91.0,500.0,600.0,520.0,630.0,0.0,0.0,23.0,28.0,Arkansas,Southeast AL AR FL GA KY LA MS NC SC TN VA WV,Four or more years,Public,60.0,51.0,Fayetteville,AR,72701,-94.17698100000001,36.070009000000006
40,University of Arkansas at Pine Bluff,4094.0,1134.0,568.0,6.0,94.0,330.0,430.0,348.0,493.0,340.0,430.0,15.0,20.0,Arkansas,Southeast AL AR FL GA KY LA MS NC SC TN VA WV,Four or more years,Public,26.0,54.0,Pine Bluff,AR,71601,-92.018683,34.244031
41,Arkansas Tech University,3847.0,3271.0,1755.0,1.0,84.0,370.0,490.0,410.0,520.0,370.0,490.0,18.0,25.0,Arkansas,Southeast AL AR FL GA KY LA MS NC SC TN VA WV,Four or more years,Public,41.0,54.0,Russellville,AR,72801-2222,-93.13561999999999,35.293237
42,University of Arkansas at Monticello,0.0,0.0,0.0,0.0,0.0,0.0,0.0,0.0,0.0,0.0,0.0,0.0,0.0,Arkansas,Southeast AL AR FL GA KY LA MS NC SC TN VA WV,Four or more years,Public,22.0,58.0,Monticello,AR,71656,-91.811153,33.590909
43,University of Central Arkansas,3659.0,3292.0,2157.0,0.0,97.0,0.0,0.0,0.0,0.0,0.0,0.0,20.0,26.0,Arkansas,Southeast AL AR FL GA KY LA MS NC SC TN VA WV,Four or more years,Public,42.0,58.0,Conway,AR,72035-0001,-92.457672,35.077945
44,Central Baptist College,540.0,292.0,129.0,3.0,85.0,430.0,590.0,470.0,670.0,430.0,620.0,18.0,23.0,Arkansas,Southeast AL AR FL GA KY LA MS NC SC TN VA WV,Four or more years,Private not-for-profit,38.0,49.0,Conway,AR,72034,-92.445021,35.083838
45,Harding University,2180.0,1663.0,1041.0,29.0,87.0,490.0,630.0,500.0,620.0,0.0,0.0,22.0,28.0,Arkansas,Southeast AL AR FL GA KY LA MS NC SC TN VA WV,Four or more years,Private not-for-profit,62.0,54.0,Searcy,AR,72149-5615,-91.72614300000001,35.247386
46,Henderson State University,3350.0,2084.0,704.0,3.0,94.0,460.0,538.0,490.0,590.0,0.0,0.0,19.0,24.0,Arkansas,Southeast AL AR FL GA KY LA MS NC SC TN VA WV,Four or more years,Public,29.0,56.0,Arkadelphia,AR,71999-0001,-93.059703,34.128155
47,Hendrix College,1928.0,1550.0,436.0,45.0,82.0,530.0,680.0,540.0,650.0,0.0,0.0,26.0,32.0,Arkansas,Southeast AL AR FL GA KY LA MS NC SC TN VA WV,Four or more years,Private not-for-profit,70.0,55.0,Conway,AR,72032-3080,-92.443256,35.101565
48,John Brown University,1143.0,798.0,305.0,30.0,82.0,500.0,640.0,505.0,640.0,490.0,610.0,22.0,28.0,Arkansas,Southeast AL AR FL GA KY LA MS NC SC TN VA WV,Four or more years,Private not-for-profit,65.0,56.0,Siloam Springs,AR,72761,-94.560283,36.189811999999996
49,Ouachita Baptist University,1740.0,1220.0,394.0,19.0,91.0,440.0,550.0,460.0,580.0,0.0,0.0,21.0,27.0,Arkansas,Southeast AL AR FL GA KY LA MS NC SC TN VA WV,Four or more years,Private not-for-profit,60.0,53.0,Arkadelphia,AR,71998-0001,-93.052471,34.126093
50,University of the Ozarks,1061.0,651.0,159.0,16.0,85.0,420.0,550.0,450.0,550.0,0.0,0.0,20.0,26.0,Arkansas,Southeast AL AR FL GA KY LA MS NC SC TN VA WV,Four or more years,Private not-for-profit,48.0,52.0,Clarksville,AR,72830,-93.467221,35.476278
51,Philander Smith College,0.0,0.0,0.0,0.0,0.0,0.0,0.0,0.0,0.0,0.0,0.0,0.0,0.0,Arkansas,Southeast AL AR FL GA KY LA MS NC SC TN VA WV,Four or more years,Private not-for-profit,45.0,66.0,Little Rock,AR,72202-3799,-92.283015,34.737131
52,Southern Arkansas University Main Campus,2720.0,1654.0,663.0,6.0,94.0,410.0,520.0,430.0,590.0,0.0,0.0,18.0,24.0,Arkansas,Southeast AL AR FL GA KY LA MS NC SC TN VA WV,Four or more years,Public,30.0,58.0,Magnolia,AR,71753,-93.235922,33.291618
53,University of Arkansas-Fort Smith,3905.0,2240.0,1343.0,2.0,82.0,350.0,540.0,430.0,620.0,390.0,550.0,19.0,25.0,Arkansas,Southeast AL AR FL GA KY LA MS NC SC TN VA WV,Four or more years,Public,24.0,56.0,Fort Smith,AR,72913-3649,-94.373729,35.384184000000005
54,Azusa Pacific University,5329.0,4255.0,1250.0,86.0,42.0,490.0,600.0,490.0,610.0,0.0,0.0,21.0,27.0,California,Far West AK CA HI NV OR WA,Four or more years,Private not-for-profit,65.0,64.0,Azusa,CA,91702-7000,-117.888375,34.130047
55,Biola University,4816.0,3509.0,903.0,85.0,40.0,500.0,620.0,503.0,620.0,490.0,620.0,22.0,27.0,California,Far West AK CA HI NV OR WA,Four or more years,Private not-for-profit,68.0,62.0,La Mirada,CA,90639-0001,-118.014374,33.906203000000005
56,California Institute of Integral Studies,0.0,0.0,0.0,0.0,0.0,0.0,0.0,0.0,0.0,0.0,0.0,0.0,0.0,California,Far West AK CA HI NV OR WA,Four or more years,Private not-for-profit,0.0,73.0,San Francisco,CA,94103,-122.416102,37.774924
57,California Baptist University,3853.0,3036.0,993.0,82.0,44.0,430.0,550.0,420.0,560.0,420.0,540.0,18.0,24.0,California,Far West AK CA HI NV OR WA,Four or more years,Private not-for-profit,58.0,64.0,Riverside,CA,92504-3297,-117.425619,33.929321
58,California Institute of Technology,5535.0,584.0,249.0,88.0,43.0,720.0,800.0,770.0,800.0,720.0,790.0,33.0,35.0,California,Far West AK CA HI NV OR WA,Four or more years,Private not-for-profit,93.0,37.0,Pasadena,CA,91125,-118.125878,34.137349
59,California Lutheran University,6920.0,3323.0,540.0,84.0,42.0,500.0,590.0,510.0,613.0,0.0,0.0,22.0,26.0,California,Far West AK CA HI NV OR WA,Four or more years,Private not-for-profit,70.0,55.0,Thousand Oaks,CA,91360-2787,-118.878924,34.224565999999996
60,California Polytechnic State University-San Luis Obispo,36941.0,11537.0,3635.0,88.0,62.0,550.0,650.0,590.0,690.0,0.0,0.0,25.0,30.0,California,Far West AK CA HI NV OR WA,Four or more years,Public,70.0,45.0,San Luis Obispo,CA,93407,-120.657311,35.299513
61,California State University-Bakersfield,6630.0,4393.0,1328.0,90.0,24.0,390.0,500.0,400.0,520.0,0.0,0.0,15.0,22.0,California,Far West AK CA HI NV OR WA,Four or more years,Public,39.0,61.0,Bakersfield,CA,93311-1099,-119.10471100000001,35.350004999999996
62,California State University-Stanislaus,5763.0,4158.0,1109.0,86.0,35.0,400.0,510.0,410.0,520.0,0.0,0.0,16.0,22.0,California,Far West AK CA HI NV OR WA,Four or more years,Public,52.0,64.0,Turlock,CA,95382-0299,-120.852511,37.52577
63,California State University-San Bernardino,12239.0,7137.0,2448.0,95.0,37.0,390.0,490.0,400.0,510.0,0.0,0.0,16.0,20.0,California,Far West AK CA HI NV OR WA,Four or more years,Public,41.0,61.0,San Bernardino,CA,92407-2393,-117.323801,34.182621999999995
64,California State Polytechnic University-Pomona,28143.0,14686.0,3120.0,95.0,27.0,460.0,570.0,490.0,620.0,0.0,0.0,20.0,26.0,California,Far West AK CA HI NV OR WA,Four or more years,Public,52.0,43.0,Pomona,CA,91768,-117.821476,34.057912
65,California State University-Chico,17215.0,12327.0,2714.0,90.0,36.0,450.0,550.0,460.0,570.0,0.0,0.0,19.0,24.0,California,Far West AK CA HI NV OR WA,Four or more years,Public,56.0,52.0,Chico,CA,95929-0150,-121.84485900000001,39.729712
66,California State University-Dominguez Hills,14742.0,8472.0,1214.0,80.0,21.0,380.0,470.0,380.0,470.0,0.0,0.0,15.0,19.0,California,Far West AK CA HI NV OR WA,Four or more years,Public,29.0,64.0,Carson,CA,90747-0005,-118.255917,33.864765999999996
67,California State University-Fresno,16242.0,9444.0,3139.0,89.0,39.0,400.0,510.0,410.0,530.0,0.0,0.0,16.0,22.0,California,Far West AK CA HI NV OR WA,Four or more years,Public,49.0,57.0,Fresno,CA,93740,-119.744569,36.811153999999995
68,California State University-Fullerton,38909.0,17817.0,4526.0,95.0,34.0,450.0,550.0,470.0,580.0,0.0,0.0,19.0,24.0,California,Far West AK CA HI NV OR WA,Four or more years,Public,53.0,55.0,Fullerton,CA,92831-3599,-117.885446,33.881506
69,California State University-East Bay,12741.0,8756.0,1572.0,91.0,32.0,400.0,500.0,400.0,520.0,0.0,0.0,16.0,22.0,California,Far West AK CA HI NV OR WA,Four or more years,Public,38.0,61.0,Hayward,CA,94542,-122.054135,37.657694
70,California State University-Long Beach,55019.0,16956.0,4276.0,95.0,33.0,440.0,550.0,460.0,590.0,0.0,0.0,18.0,24.0,California,Far West AK CA HI NV OR WA,Four or more years,Public,60.0,57.0,Long Beach,CA,90840-0115,-118.11204,33.782818
71,California State University-Los Angeles,27321.0,18448.0,2908.0,95.0,32.0,380.0,480.0,390.0,510.0,0.0,0.0,15.0,20.0,California,Far West AK CA HI NV OR WA,Four or more years,Public,36.0,59.0,Los Angeles,CA,90032-8506,-118.16896499999999,34.066927
72,California State University-Northridge,29339.0,13566.0,4149.0,91.0,25.0,400.0,510.0,400.0,530.0,0.0,0.0,16.0,22.0,California,Far West AK CA HI NV OR WA,Four or more years,Public,46.0,55.0,Northridge,CA,91330,-118.529319,34.240126000000004
73,California State University-Sacramento,19702.0,13728.0,3151.0,92.0,34.0,410.0,520.0,430.0,540.0,0.0,0.0,17.0,22.0,California,Far West AK CA HI NV OR WA,Four or more years,Public,43.0,57.0,Sacramento,CA,95819-2694,-121.423549,38.559415
74,University of California-Berkeley,61717.0,11108.0,4162.0,91.0,40.0,590.0,720.0,630.0,770.0,620.0,750.0,27.0,33.0,California,Far West AK CA HI NV OR WA,Four or more years,Public,91.0,52.0,Berkeley,CA,94720,-122.26046299999999,37.871918
75,University of California-Davis,49820.0,22526.0,5208.0,93.0,45.0,510.0,640.0,560.0,680.0,530.0,650.0,23.0,29.0,California,Far West AK CA HI NV OR WA,Four or more years,Public,81.0,56.0,Davis,CA,95616-8678,-121.749567,38.539667
76,University of California-Irvine,56515.0,23956.0,5077.0,95.0,41.0,460.0,600.0,530.0,670.0,490.0,620.0,21.0,27.0,California,Far West AK CA HI NV OR WA,Four or more years,Public,86.0,54.0,Irvine,CA,92697,-117.841248,33.648434
77,University of California-Los Angeles,72676.0,15981.0,5620.0,91.0,41.0,560.0,680.0,600.0,760.0,590.0,710.0,25.0,31.0,California,Far West AK CA HI NV OR WA,Four or more years,Public,90.0,55.0,Los Angeles,CA,90095-1405,-118.44217900000001,34.07178
78,University of California-Riverside,30391.0,18843.0,4034.0,96.0,40.0,470.0,580.0,500.0,630.0,480.0,590.0,20.0,25.0,California,Far West AK CA HI NV OR WA,Four or more years,Public,66.0,51.0,Riverside,CA,92521,-117.32741000000001,33.97246
79,University of California-San Diego,60832.0,22812.0,4575.0,93.0,39.0,550.0,660.0,620.0,730.0,580.0,690.0,25.0,31.0,California,Far West AK CA HI NV OR WA,Four or more years,Public,86.0,48.0,La Jolla,CA,92093,-117.23586599999999,32.877749
80,University of California-Santa Barbara,55258.0,24556.0,4741.0,93.0,47.0,530.0,650.0,560.0,690.0,550.0,660.0,24.0,29.0,California,Far West AK CA HI NV OR WA,Four or more years,Public,81.0,52.0,Santa Barbara,CA,93106,-119.846426,34.416297
81,University of California-Santa Cruz,33137.0,19851.0,3827.0,92.0,43.0,470.0,610.0,490.0,620.0,470.0,610.0,20.0,26.0,California,Far West AK CA HI NV OR WA,Four or more years,Public,73.0,53.0,Santa Cruz,CA,95064-1011,-122.058801,36.995584
82,Chapman University,11750.0,5253.0,1289.0,78.0,51.0,550.0,640.0,570.0,660.0,560.0,650.0,24.0,29.0,California,Far West AK CA HI NV OR WA,Four or more years,Private not-for-profit,76.0,59.0,Orange,CA,92866,-117.85251799999999,33.79302
83,Concordia University-Irvine,2055.0,1874.0,373.0,83.0,38.0,453.0,550.0,450.0,560.0,450.0,550.0,20.0,25.0,California,Far West AK CA HI NV OR WA,Four or more years,Private not-for-profit,63.0,62.0,Irvine,CA,92612-3203,-117.81230500000001,33.653665000000004
84,San Diego Christian College,561.0,276.0,99.0,76.0,42.0,440.0,570.0,430.0,550.0,425.0,530.0,19.0,22.0,California,Far West AK CA HI NV OR WA,Four or more years,Private not-for-profit,41.0,53.0,Santee,CA,92071,-116.97811200000001,32.842403999999995
85,Claremont Graduate University,0.0,0.0,0.0,0.0,0.0,0.0,0.0,0.0,0.0,0.0,0.0,0.0,0.0,California,Far West AK CA HI NV OR WA,Four or more years,Private not-for-profit,0.0,0.0,Claremont,CA,91711-6160,-117.71370300000001,34.103584999999995
86,Claremont McKenna College,5518.0,647.0,337.0,58.0,42.0,650.0,740.0,670.0,760.0,660.0,750.0,29.0,33.0,California,Far West AK CA HI NV OR WA,Four or more years,Private not-for-profit,93.0,48.0,Claremont,CA,91711-6400,-117.71118799999999,34.102154
87,Dominican University of California,2322.0,1800.0,305.0,87.0,38.0,480.0,570.0,480.0,590.0,480.0,580.0,20.0,25.0,California,Far West AK CA HI NV OR WA,Four or more years,Private not-for-profit,53.0,74.0,San Rafael,CA,94901-2298,-122.512051,37.981279
88,Fielding Graduate University,0.0,0.0,0.0,0.0,0.0,0.0,0.0,0.0,0.0,0.0,0.0,0.0,0.0,California,Far West AK CA HI NV OR WA,Four or more years,Private not-for-profit,0.0,0.0,Santa Barbara,CA,93105-3538,-119.717161,34.42941
89,Fresno Pacific University,705.0,553.0,212.0,98.0,39.0,440.0,550.0,440.0,550.0,428.0,550.0,18.0,22.0,California,Far West AK CA HI NV OR WA,Four or more years,Private not-for-profit,54.0,68.0,Fresno,CA,93702-4709,-119.735199,36.726831
90,Golden Gate University-San Francisco,0.0,0.0,0.0,0.0,0.0,0.0,0.0,0.0,0.0,0.0,0.0,0.0,0.0,California,Far West AK CA HI NV OR WA,Four or more years,Private not-for-profit,0.0,54.0,San Francisco,CA,94105-2968,-122.398969,37.789374
91,Harvey Mudd College,3539.0,643.0,217.0,89.0,41.0,680.0,760.0,720.0,800.0,670.0,760.0,32.0,35.0,California,Far West AK CA HI NV OR WA,Four or more years,Private not-for-profit,91.0,46.0,Claremont,CA,91711,-117.70983700000001,34.106515
92,Holy Names University,561.0,318.0,87.0,97.0,40.0,410.0,500.0,410.0,500.0,0.0,0.0,17.0,21.0,California,Far West AK CA HI NV OR WA,Four or more years,Private not-for-profit,35.0,69.0,Oakland,CA,94619-1699,-122.187804,37.802276
93,Humboldt State University,9978.0,8000.0,1237.0,93.0,37.0,450.0,580.0,440.0,560.0,0.0,0.0,18.0,24.0,California,Far West AK CA HI NV OR WA,Four or more years,Public,40.0,53.0,Arcata,CA,95521-8299,-124.07829299999999,40.877481
94,American Jewish University,100.0,59.0,23.0,0.0,0.0,0.0,0.0,0.0,0.0,0.0,0.0,0.0,0.0,California,Far West AK CA HI NV OR WA,Four or more years,Private not-for-profit,81.0,50.0,Los Angeles,CA,90077-1519,-118.47170600000001,34.128153000000005
95,University of La Verne,6989.0,2722.0,623.0,91.0,31.0,460.0,550.0,470.0,580.0,460.0,560.0,20.0,25.0,California,Far West AK CA HI NV OR WA,Four or more years,Private not-for-profit,59.0,58.0,La Verne,CA,91750-4401,-117.77326200000002,34.100854999999996
96,Lincoln University,0.0,0.0,0.0,0.0,0.0,0.0,0.0,0.0,0.0,0.0,0.0,0.0,0.0,California,Far West AK CA HI NV OR WA,Four or more years,Private not-for-profit,76.0,65.0,Oakland,CA,94612-2801,-122.269745,37.804788
97,Lincoln University,0.0,0.0,0.0,0.0,0.0,0.0,0.0,0.0,0.0,0.0,0.0,0.0,0.0,California,Far West AK CA HI NV OR WA,Four or more years,Private not-for-profit,76.0,65.0,Jefferson City,MO,65101,-92.166724,38.564431
98,Lincoln University,0.0,0.0,0.0,0.0,0.0,0.0,0.0,0.0,0.0,0.0,0.0,0.0,0.0,California,Far West AK CA HI NV OR WA,Four or more years,Private not-for-profit,76.0,65.0,Lincoln University,PA,19352-0999,-75.926458,39.807722999999996
99,Lincoln University,0.0,0.0,0.0,0.0,0.0,0.0,0.0,0.0,0.0,0.0,0.0,0.0,0.0,Missouri,Plains IA KS MN MO NE ND SD,Four or more years,Public,22.0,57.0,Oakland,CA,94612-2801,-122.269745,37.804788
100,Lincoln University,0.0,0.0,0.0,0.0,0.0,0.0,0.0,0.0,0.0,0.0,0.0,0.0,0.0,Missouri,Plains IA KS MN MO NE ND SD,Four or more years,Public,22.0,57.0,Jefferson City,MO,65101,-92.166724,38.564431
101,Lincoln University,0.0,0.0,0.0,0.0,0.0,0.0,0.0,0.0,0.0,0.0,0.0,0.0,0.0,Missouri,Plains IA KS MN MO NE ND SD,Four or more years,Public,22.0,57.0,Lincoln University,PA,19352-0999,-75.926458,39.807722999999996
102,La Sierra University,3479.0,1627.0,477.0,87.0,29.0,400.0,510.0,410.0,530.0,410.0,520.0,17.0,22.0,California,Far West AK CA HI NV OR WA,Four or more years,Private not-for-profit,59.0,58.0,Riverside,CA,92505-8247,-117.500054,33.910703999999996
103,Loyola Marymount University,11472.0,6209.0,1341.0,79.0,44.0,540.0,640.0,550.0,650.0,550.0,650.0,25.0,29.0,California,Far West AK CA HI NV OR WA,Four or more years,Private not-for-profit,76.0,57.0,Los Angeles,CA,90045-2659,-118.41574399999999,33.97085
104,Menlo College,4100.0,1519.0,139.0,87.0,31.0,432.0,532.0,450.0,565.0,425.0,513.0,19.0,25.0,California,Far West AK CA HI NV OR WA,Four or more years,Private not-for-profit,41.0,38.0,Atherton,CA,94027-4301,-122.190797,37.453475
105,Mills College,1827.0,1242.0,217.0,86.0,36.0,540.0,640.0,500.0,610.0,520.0,620.0,23.0,28.0,California,Far West AK CA HI NV OR WA,Four or more years,Private not-for-profit,62.0,100.0,Oakland,CA,94613,-122.182294,37.781425
106,National University,0.0,0.0,0.0,0.0,0.0,0.0,0.0,0.0,0.0,0.0,0.0,0.0,0.0,California,Far West AK CA HI NV OR WA,Four or more years,Private not-for-profit,38.0,57.0,La Jolla,CA,92037-1011,-117.243026,32.909894
107,Notre Dame de Namur University,1922.0,1676.0,172.0,77.0,45.0,430.0,550.0,430.0,560.0,430.0,510.0,18.0,22.0,California,Far West AK CA HI NV OR WA,Four or more years,Private not-for-profit,48.0,67.0,Belmont,CA,94002-1908,-122.28479399999999,37.517111
108,Occidental College,6072.0,2574.0,548.0,80.0,46.0,600.0,700.0,610.0,700.0,610.0,700.0,27.0,31.0,California,Far West AK CA HI NV OR WA,Four or more years,Private not-for-profit,88.0,56.0,Los Angeles,CA,90041-3392,-118.210908,34.127124
109,Hope International University,408.0,191.0,78.0,91.0,37.0,433.0,538.0,420.0,528.0,423.0,530.0,17.0,22.0,California,Far West AK CA HI NV OR WA,Four or more years,Private not-for-profit,44.0,55.0,Fullerton,CA,92831-3199,-117.88573000000001,33.87616
110,Pacific Union College,2103.0,1063.0,335.0,79.0,30.0,450.0,570.0,440.0,580.0,440.0,560.0,18.0,25.0,California,Far West AK CA HI NV OR WA,Four or more years,Private not-for-profit,37.0,56.0,Angwin,CA,94508-9707,-122.440308,38.570584999999994
111,University of the Pacific,14222.0,10332.0,958.0,89.0,39.0,500.0,640.0,530.0,680.0,500.0,640.0,22.0,29.0,California,Far West AK CA HI NV OR WA,Four or more years,Private not-for-profit,63.0,52.0,Stockton,CA,95211-0197,-121.312301,37.981424
112,Pepperdine University,9721.0,3630.0,784.0,76.0,0.0,560.0,660.0,570.0,680.0,570.0,670.0,0.0,0.0,California,Far West AK CA HI NV OR WA,Four or more years,Private not-for-profit,80.0,59.0,Malibu,CA,90263,-118.707077,34.037786
113,Pitzer College,4115.0,597.0,261.0,0.0,0.0,0.0,0.0,0.0,0.0,0.0,0.0,0.0,0.0,California,Far West AK CA HI NV OR WA,Four or more years,Private not-for-profit,82.0,60.0,Claremont,CA,91711-6101,-117.706675,34.104107
114,Point Loma Nazarene University,3138.0,2088.0,647.0,86.0,48.0,520.0,630.0,520.0,630.0,0.0,0.0,23.0,28.0,California,Far West AK CA HI NV OR WA,Four or more years,Private not-for-profit,72.0,63.0,San Diego,CA,92106-2899,-117.25026499999998,32.718391
115,Pomona College,7153.0,996.0,397.0,78.0,51.0,690.0,760.0,690.0,780.0,690.0,780.0,31.0,34.0,California,Far West AK CA HI NV OR WA,Four or more years,Private not-for-profit,96.0,52.0,Claremont,CA,91711-6319,-117.714556,34.099027
116,University of Redlands,4668.0,3137.0,673.0,71.0,37.0,510.0,610.0,520.0,620.0,0.0,0.0,23.0,27.0,California,Far West AK CA HI NV OR WA,Four or more years,Private not-for-profit,73.0,55.0,Redlands,CA,92373-0999,-117.163218,34.064218
117,San Diego State University,51163.0,15970.0,4139.0,92.0,42.0,480.0,590.0,500.0,610.0,0.0,0.0,21.0,26.0,California,Far West AK CA HI NV OR WA,Four or more years,Public,66.0,55.0,San Diego,CA,92182-0001,-117.071228,32.77525
118,University of San Diego,14693.0,7178.0,1238.0,73.0,53.0,540.0,650.0,570.0,670.0,0.0,0.0,25.0,30.0,California,Far West AK CA HI NV OR WA,Four or more years,Private not-for-profit,75.0,55.0,San Diego,CA,92110-2492,-117.192073,32.770815999999996
119,San Francisco State University,31462.0,20070.0,3807.0,93.0,23.0,430.0,550.0,450.0,560.0,0.0,0.0,19.0,24.0,California,Far West AK CA HI NV OR WA,Four or more years,Public,45.0,57.0,San Francisco,CA,94132,-122.476799,37.721224
120,University of San Francisco,14808.0,9076.0,1148.0,75.0,43.0,530.0,630.0,540.0,640.0,530.0,630.0,23.0,27.0,California,Far West AK CA HI NV OR WA,Four or more years,Private not-for-profit,69.0,62.0,San Francisco,CA,94117-1080,-122.450477,37.776618
121,San Jose State University,25155.0,15967.0,3384.0,94.0,24.0,440.0,550.0,470.0,600.0,0.0,0.0,19.0,25.0,California,Far West AK CA HI NV OR WA,Four or more years,Public,48.0,49.0,San Jose,CA,95192-0001,-121.88062099999999,37.336569
122,Santa Clara University,14339.0,7344.0,1278.0,79.0,48.0,590.0,680.0,610.0,700.0,0.0,0.0,27.0,31.0,California,Far West AK CA HI NV OR WA,Four or more years,Private not-for-profit,84.0,50.0,Santa Clara,CA,95053,-121.93784,37.348362
123,Scripps College,2378.0,849.0,272.0,73.0,43.0,640.0,733.0,640.0,720.0,660.0,750.0,29.0,32.0,California,Far West AK CA HI NV OR WA,Four or more years,Private not-for-profit,84.0,100.0,Claremont,CA,91711-3905,-117.711294,34.104147
124,Simpson University,573.0,318.0,150.0,85.0,33.0,460.0,570.0,450.0,580.0,450.0,560.0,21.0,23.0,California,Far West AK CA HI NV OR WA,Four or more years,Private not-for-profit,47.0,66.0,Redding,CA,96003-8606,-122.332981,40.61334
125,Saint Mary's College of California,4864.0,3379.0,622.0,80.0,43.0,500.0,600.0,510.0,610.0,510.0,610.0,22.0,27.0,California,Far West AK CA HI NV OR WA,Four or more years,Private not-for-profit,60.0,59.0,Moraga,CA,94575,-122.109031,37.840731
126,Sonoma State University,13142.0,10758.0,1749.0,93.0,38.0,450.0,550.0,450.0,560.0,0.0,0.0,19.0,24.0,California,Far West AK CA HI NV OR WA,Four or more years,Public,54.0,61.0,Rohnert Park,CA,94928-3609,-122.677066,38.340274
127,Vanguard University of Southern California,1495.0,1043.0,392.0,82.0,29.0,430.0,550.0,400.0,520.0,0.0,0.0,18.0,28.0,California,Far West AK CA HI NV OR WA,Four or more years,Private not-for-profit,52.0,68.0,Costa Mesa,CA,92626,-117.90091100000001,33.662686
128,University of Southern California,47358.0,9395.0,2922.0,79.0,41.0,620.0,720.0,660.0,760.0,640.0,750.0,29.0,33.0,California,Far West AK CA HI NV OR WA,Four or more years,Private not-for-profit,91.0,50.0,Los Angeles,CA,90089,-118.28416899999999,34.021281
129,Thomas Aquinas College,178.0,141.0,88.0,84.0,31.0,590.0,700.0,570.0,640.0,570.0,690.0,23.0,31.0,California,Far West AK CA HI NV OR WA,Four or more years,Private not-for-profit,80.0,49.0,Santa Paula,CA,93060,-119.08714099999999,34.429009
130,Westmont College,2145.0,1505.0,298.0,79.0,50.0,520.0,650.0,540.0,660.0,520.0,650.0,24.0,29.0,California,Far West AK CA HI NV OR WA,Four or more years,Private not-for-profit,76.0,61.0,Santa Barbara,CA,93108-1089,-119.662517,34.450151
131,Whittier College,4381.0,2771.0,446.0,85.0,34.0,460.0,570.0,470.0,580.0,470.0,580.0,20.0,25.0,California,Far West AK CA HI NV OR WA,Four or more years,Private not-for-profit,67.0,56.0,Whittier,CA,90601,-118.032299,33.978773
132,Woodbury University,879.0,490.0,118.0,82.0,23.0,420.0,540.0,440.0,550.0,0.0,0.0,19.0,25.0,California,Far West AK CA HI NV OR WA,Four or more years,Private not-for-profit,45.0,51.0,Burbank,CA,91504-1052,-118.34114699999999,34.208011
133,Adams State University,2658.0,1398.0,519.0,16.0,90.0,440.0,533.0,450.0,550.0,440.0,530.0,17.0,22.0,Colorado,Rocky Mountains CO ID MT UT WY,Four or more years,Public,25.0,50.0,Alamosa,CO,81101,-105.87964199999999,37.473636
134,University of Colorado Colorado Springs,7034.0,6401.0,1616.0,20.0,90.0,470.0,580.0,470.0,600.0,0.0,0.0,21.0,25.0,Colorado,Rocky Mountains CO ID MT UT WY,Four or more years,Public,46.0,53.0,Colorado Springs,CO,80918,-104.800296,38.892734999999995
135,University of Colorado Boulder,22473.0,19710.0,5846.0,45.0,75.0,520.0,630.0,540.0,650.0,0.0,0.0,24.0,29.0,Colorado,Rocky Mountains CO ID MT UT WY,Four or more years,Public,70.0,45.0,Boulder,CO,80309-0017,-105.270823,40.008781
136,Colorado Christian University,1186.0,1158.0,447.0,0.0,0.0,0.0,0.0,0.0,0.0,0.0,0.0,0.0,0.0,Colorado,Rocky Mountains CO ID MT UT WY,Four or more years,Private not-for-profit,36.0,66.0,Lakewood,CO,80226,-105.09456000000002,39.713879999999996
137,Colorado College,5780.0,1288.0,522.0,49.0,47.0,610.0,710.0,610.0,720.0,620.0,700.0,27.0,32.0,Colorado,Rocky Mountains CO ID MT UT WY,Four or more years,Private not-for-profit,87.0,55.0,Colorado Springs,CO,80903,-104.82269699999999,38.848859999999995
138,Colorado School of Mines,11682.0,4373.0,949.0,42.0,88.0,570.0,670.0,630.0,720.0,550.0,650.0,27.0,31.0,Colorado,Rocky Mountains CO ID MT UT WY,Four or more years,Public,70.0,27.0,Golden,CO,80401,-105.22336399999999,39.751443
139,Colorado State University-Fort Collins,17970.0,13914.0,4443.0,28.0,92.0,510.0,620.0,510.0,630.0,0.0,0.0,22.0,27.0,Colorado,Rocky Mountains CO ID MT UT WY,Four or more years,Public,64.0,51.0,Fort Collins,CO,80523-0100,-105.08073200000001,40.574805
140,University of Denver,13735.0,10539.0,1413.0,44.0,70.0,540.0,660.0,560.0,660.0,520.0,630.0,25.0,30.0,Colorado,Rocky Mountains CO ID MT UT WY,Four or more years,Private not-for-profit,78.0,55.0,Denver,CO,80208,-104.96325900000001,39.678005
141,Fort Lewis College,2560.0,2240.0,876.0,23.0,87.0,470.0,570.0,475.0,580.0,0.0,0.0,20.0,25.0,Colorado,Rocky Mountains CO ID MT UT WY,Four or more years,Public,37.0,49.0,Durango,CO,81301-3999,-107.86742199999999,37.275939
142,Colorado Mesa University,6459.0,5304.0,2214.0,12.0,87.0,430.0,540.0,450.0,550.0,0.0,0.0,18.0,23.0,Colorado,Rocky Mountains CO ID MT UT WY,Four or more years,Public,33.0,55.0,Grand Junction,CO,81501-3122,-108.553275,39.080643
143,Metropolitan State University of Denver,5867.0,4175.0,1991.0,3.0,86.0,460.0,590.0,470.0,610.0,0.0,0.0,18.0,23.0,Colorado,Rocky Mountains CO ID MT UT WY,Four or more years,Public,26.0,54.0,Denver,CO,80217-3362,-105.00504,39.744202
144,Naropa University,79.0,63.0,38.0,0.0,0.0,0.0,0.0,0.0,0.0,0.0,0.0,0.0,0.0,Colorado,Rocky Mountains CO ID MT UT WY,Four or more years,Private not-for-profit,41.0,64.0,Boulder,CO,80302-6697,-105.26698700000001,40.014235
145,University of Northern Colorado,7602.0,5289.0,1939.0,13.0,91.0,450.0,570.0,450.0,570.0,0.0,0.0,20.0,24.0,Colorado,Rocky Mountains CO ID MT UT WY,Four or more years,Public,46.0,63.0,Greeley,CO,80639,-104.692777,40.410855
146,Regis University,3006.0,2100.0,531.0,30.0,67.0,490.0,600.0,470.0,600.0,0.0,0.0,21.0,26.0,Colorado,Rocky Mountains CO ID MT UT WY,Four or more years,Private not-for-profit,58.0,63.0,Denver,CO,80221-1099,-105.03075600000001,39.788175
147,Albertus Magnus College,689.0,470.0,132.0,95.0,0.0,380.0,480.0,320.0,480.0,410.0,470.0,0.0,0.0,Connecticut,New England CT ME MA NH RI VT,Four or more years,Private not-for-profit,43.0,65.0,New Haven,CT,06511-1189,-72.92384799999999,41.332519
148,University of Bridgeport,5248.0,3351.0,542.0,91.0,9.0,410.0,500.0,420.0,510.0,410.0,500.0,18.0,22.0,Connecticut,New England CT ME MA NH RI VT,Four or more years,Private not-for-profit,27.0,66.0,Bridgeport,CT,06604-5620,-73.190166,41.164741
149,Central Connecticut State University,5551.0,3560.0,1293.0,97.0,3.0,450.0,540.0,460.0,560.0,450.0,550.0,19.0,25.0,Connecticut,New England CT ME MA NH RI VT,Four or more years,Public,52.0,48.0,New Britain,CT,06050,-72.765991,41.692502000000005
150,Charter Oak State College,0.0,0.0,0.0,0.0,0.0,0.0,0.0,0.0,0.0,0.0,0.0,0.0,0.0,Connecticut,New England CT ME MA NH RI VT,Four or more years,Public,0.0,66.0,New Britain,CT,06053,-72.767972,41.688246
151,Connecticut College,4837.0,1734.0,503.0,0.0,0.0,0.0,0.0,0.0,0.0,0.0,0.0,0.0,0.0,Connecticut,New England CT ME MA NH RI VT,Four or more years,Private not-for-profit,84.0,61.0,New London,CT,06320-4196,-72.107321,41.379833000000005
152,University of Connecticut,27479.0,14745.0,3755.0,91.0,27.0,550.0,650.0,580.0,680.0,0.0,0.0,25.0,30.0,Connecticut,New England CT ME MA NH RI VT,Four or more years,Public,83.0,49.0,Storrs,CT,06269,-72.249948,41.809098
153,Eastern Connecticut State University,5112.0,3299.0,985.0,94.0,13.0,460.0,550.0,470.0,550.0,470.0,560.0,20.0,24.0,Connecticut,New England CT ME MA NH RI VT,Four or more years,Public,51.0,54.0,Willimantic,CT,06226,-72.218753,41.721672999999996
154,Fairfield University,9254.0,6585.0,990.0,0.0,0.0,0.0,0.0,0.0,0.0,0.0,0.0,0.0,0.0,Connecticut,New England CT ME MA NH RI VT,Four or more years,Private not-for-profit,82.0,60.0,Fairfield,CT,06824-5195,-73.255903,41.157672999999996
155,University of Hartford,15127.0,9338.0,1267.0,74.0,15.0,470.0,570.0,480.0,580.0,0.0,0.0,20.0,26.0,Connecticut,New England CT ME MA NH RI VT,Four or more years,Private not-for-profit,61.0,50.0,West Hartford,CT,06117-1599,-72.715213,41.798590999999995
156,Mitchell College,1162.0,670.0,178.0,0.0,0.0,0.0,0.0,0.0,0.0,0.0,0.0,0.0,0.0,Connecticut,New England CT ME MA NH RI VT,Four or more years,Private not-for-profit,39.0,46.0,New London,CT,06320,-72.09523,41.328013
157,University of New Haven,10169.0,7567.0,1174.0,90.0,24.0,460.0,550.0,470.0,580.0,460.0,560.0,20.0,25.0,Connecticut,New England CT ME MA NH RI VT,Four or more years,Private not-for-profit,55.0,49.0,West Haven,CT,06516-1916,-72.961472,41.291314
158,Quinnipiac University,20699.0,13914.0,1803.0,90.0,29.0,490.0,580.0,510.0,610.0,500.0,590.0,22.0,27.0,Connecticut,New England CT ME MA NH RI VT,Four or more years,Private not-for-profit,76.0,62.0,Hamden,CT,06518,-72.89411700000001,41.418915000000005
159,Sacred Heart University,7781.0,5932.0,865.0,0.0,0.0,0.0,0.0,0.0,0.0,0.0,0.0,0.0,0.0,Connecticut,New England CT ME MA NH RI VT,Four or more years,Private not-for-profit,70.0,64.0,Fairfield,CT,06825-1000,-73.243332,41.220893
160,University of Saint Joseph,860.0,737.0,153.0,95.0,17.0,430.0,520.0,430.0,520.0,0.0,0.0,18.0,22.0,Connecticut,New England CT ME MA NH RI VT,Four or more years,Private not-for-profit,52.0,98.0,West Hartford,CT,06117,-72.72965,41.781040999999995
161,Southern Connecticut State University,4870.0,3673.0,1380.0,97.0,8.0,410.0,510.0,410.0,510.0,420.0,530.0,17.0,22.0,Connecticut,New England CT ME MA NH RI VT,Four or more years,Public,49.0,61.0,New Haven,CT,06515-1355,-72.947897,41.333225
162,Trinity College,7652.0,2432.0,604.0,48.0,30.0,570.0,680.0,580.0,670.0,590.0,673.0,25.0,29.0,Connecticut,New England CT ME MA NH RI VT,Four or more years,Private not-for-profit,86.0,49.0,Hartford,CT,06106-3100,-72.69088199999999,41.747451
163,Wesleyan University,10046.0,2102.0,752.0,80.0,41.0,640.0,740.0,660.0,740.0,650.0,750.0,29.0,33.0,Connecticut,New England CT ME MA NH RI VT,Four or more years,Private not-for-profit,92.0,52.0,Middletown,CT,06459,-72.657146,41.554665
164,Western Connecticut State University,3613.0,2366.0,797.0,0.0,0.0,0.0,0.0,0.0,0.0,0.0,0.0,0.0,0.0,Connecticut,New England CT ME MA NH RI VT,Four or more years,Public,45.0,53.0,Danbury,CT,06810-6826,-73.444264,41.400365
165,Yale University,28977.0,2043.0,1356.0,84.0,35.0,700.0,800.0,710.0,790.0,710.0,800.0,32.0,35.0,Connecticut,New England CT ME MA NH RI VT,Four or more years,Private not-for-profit,98.0,49.0,New Haven,CT,06520,-72.926688,41.311158
166,Delaware State University,8884.0,3703.0,1036.0,95.0,12.0,410.0,480.0,410.0,490.0,390.0,470.0,16.0,19.0,Delaware,Mid East DE DC MD NJ NY PA,Four or more years,Public,37.0,62.0,Dover,DE,19901,-75.54053,39.187173
167,University of Delaware,25458.0,16467.0,4224.0,99.0,27.0,520.0,630.0,540.0,650.0,520.0,630.0,24.0,29.0,Delaware,Mid East DE DC MD NJ NY PA,Four or more years,Public,82.0,57.0,Newark,DE,19716,-75.752822,39.679577
168,Wesley College,2933.0,1833.0,556.0,89.0,9.0,360.0,470.0,360.0,475.0,360.0,455.0,16.0,23.0,Delaware,Mid East DE DC MD NJ NY PA,Four or more years,Private not-for-profit,22.0,52.0,Dover,DE,19901-3875,-75.527716,39.163182
169,Wilmington University,0.0,0.0,0.0,0.0,0.0,0.0,0.0,0.0,0.0,0.0,0.0,0.0,0.0,Delaware,Mid East DE DC MD NJ NY PA,Four or more years,Private not-for-profit,38.0,65.0,New Castle,DE,19720,-75.586998,39.682299
170,American University,17545.0,7566.0,1627.0,67.0,35.0,590.0,690.0,570.0,660.0,580.0,680.0,26.0,30.0,District of Columbia,Mid East DE DC MD NJ NY PA,Four or more years,Private not-for-profit,80.0,61.0,Washington,DC,20016-8001,-77.088875,38.936005
171,University of the District of Columbia,0.0,0.0,0.0,0.0,0.0,0.0,0.0,0.0,0.0,0.0,0.0,0.0,0.0,District of Columbia,Mid East DE DC MD NJ NY PA,Four or more years,Public,16.0,63.0,Washington,DC,20008,-77.066247,38.943819
172,Gallaudet University,520.0,341.0,201.0,12.0,95.0,348.0,435.0,345.0,495.0,0.0,0.0,15.0,20.0,District of Columbia,Mid East DE DC MD NJ NY PA,Four or more years,Private not-for-profit,48.0,54.0,Washington,DC,20002-3695,-76.993675,38.907371000000005
173,George Washington University,21756.0,7197.0,2387.0,75.0,37.0,600.0,690.0,600.0,700.0,610.0,700.0,27.0,31.0,District of Columbia,Mid East DE DC MD NJ NY PA,Four or more years,Private not-for-profit,81.0,55.0,Washington,DC,20052,-77.048363,38.899229999999996
174,Georgetown University,20115.0,3413.0,1570.0,87.0,35.0,650.0,750.0,660.0,750.0,0.0,0.0,29.0,33.0,District of Columbia,Mid East DE DC MD NJ NY PA,Four or more years,Private not-for-profit,92.0,55.0,Washington,DC,20057-0001,-77.073463,38.908809000000005
175,Howard University,11687.0,5762.0,1394.0,76.0,48.0,490.0,590.0,480.0,590.0,480.0,580.0,21.0,26.0,District of Columbia,Mid East DE DC MD NJ NY PA,Four or more years,Private not-for-profit,61.0,67.0,Washington,DC,20059,-77.018966,38.922391999999995
176,Trinity Washington University,1493.0,781.0,276.0,0.0,0.0,0.0,0.0,0.0,0.0,0.0,0.0,0.0,0.0,District of Columbia,Mid East DE DC MD NJ NY PA,Four or more years,Private not-for-profit,34.0,95.0,Washington,DC,20017-1094,-77.004261,38.927398
177,Barry University,7845.0,3670.0,576.0,77.0,40.0,420.0,520.0,420.0,520.0,410.0,490.0,17.0,21.0,Florida,Southeast AL AR FL GA KY LA MS NC SC TN VA WV,Four or more years,Private not-for-profit,37.0,62.0,Miami,FL,33161-6695,-80.198925,25.878908
178,Bethune-Cookman University,7429.0,4948.0,1022.0,49.0,64.0,370.0,460.0,360.0,450.0,0.0,0.0,15.0,18.0,Florida,Southeast AL AR FL GA KY LA MS NC SC TN VA WV,Four or more years,Private not-for-profit,49.0,59.0,Daytona Beach,FL,32114-3099,-81.032946,29.207195000000002
179,Lynn University,2697.0,2093.0,456.0,70.0,32.0,410.0,520.0,410.0,530.0,410.0,510.0,18.0,22.0,Florida,Southeast AL AR FL GA KY LA MS NC SC TN VA WV,Four or more years,Private not-for-profit,41.0,47.0,Boca Raton,FL,33431-5598,-80.12280600000001,26.385984999999998
180,University of Central Florida,31820.0,15572.0,6068.0,64.0,36.0,540.0,630.0,550.0,640.0,510.0,610.0,23.0,28.0,Florida,Southeast AL AR FL GA KY LA MS NC SC TN VA WV,Four or more years,Public,67.0,55.0,Orlando,FL,32816,-81.200889,28.602159000000004
181,Eckerd College,3912.0,2779.0,534.0,71.0,49.0,510.0,620.0,500.0,610.0,0.0,0.0,23.0,28.0,Florida,Southeast AL AR FL GA KY LA MS NC SC TN VA WV,Four or more years,Private not-for-profit,66.0,61.0,Saint Petersburg,FL,33711-4700,-82.687043,27.715798
182,Edward Waters College,1907.0,521.0,208.0,24.0,69.0,350.0,440.0,360.0,440.0,340.0,430.0,15.0,18.0,Florida,Southeast AL AR FL GA KY LA MS NC SC TN VA WV,Four or more years,Private not-for-profit,20.0,47.0,Jacksonville,FL,32209,-81.68487900000001,30.344790000000003
183,Embry-Riddle Aeronautical University-Daytona Beach,4074.0,3017.0,944.0,76.0,49.0,470.0,590.0,510.0,640.0,460.0,580.0,21.0,27.0,Florida,Southeast AL AR FL GA KY LA MS NC SC TN VA WV,Four or more years,Private not-for-profit,56.0,17.0,Daytona Beach,FL,32114-3900,-81.048367,29.189903
184,Florida Agricultural and Mechanical University,5029.0,2263.0,1145.0,27.0,73.0,430.0,520.0,420.0,510.0,410.0,490.0,18.0,22.0,Florida,Southeast AL AR FL GA KY LA MS NC SC TN VA WV,Four or more years,Public,41.0,61.0,Tallahassee,FL,32307,-84.290226,30.428503999999997
185,Florida Atlantic University,24889.0,11880.0,3479.0,62.0,38.0,480.0,560.0,480.0,570.0,470.0,560.0,20.0,24.0,Florida,Southeast AL AR FL GA KY LA MS NC SC TN VA WV,Four or more years,Public,41.0,56.0,Boca Raton,FL,33431-0991,-80.10297800000001,26.372421000000003
186,Florida College,383.0,225.0,196.0,47.0,69.0,470.0,590.0,460.0,570.0,0.0,0.0,20.0,26.0,Florida,Southeast AL AR FL GA KY LA MS NC SC TN VA WV,Four or more years,Private not-for-profit,9.0,50.0,Temple Terrace,FL,33617,-82.383289,28.034936
187,Florida Institute of Technology,7820.0,4727.0,783.0,53.0,38.0,500.0,610.0,530.0,650.0,0.0,0.0,23.0,28.0,Florida,Southeast AL AR FL GA KY LA MS NC SC TN VA WV,Four or more years,Private not-for-profit,54.0,27.0,Melbourne,FL,32901-6975,-80.622893,28.065815
188,Florida International University,16549.0,7122.0,2990.0,70.0,30.0,540.0,620.0,530.0,610.0,520.0,600.0,24.0,27.0,Florida,Southeast AL AR FL GA KY LA MS NC SC TN VA WV,Four or more years,Public,52.0,55.0,Miami,FL,33199,-80.373928,25.75732
189,Florida Memorial University,4960.0,2063.0,432.0,0.0,0.0,0.0,0.0,0.0,0.0,0.0,0.0,0.0,0.0,Florida,Southeast AL AR FL GA KY LA MS NC SC TN VA WV,Four or more years,Private not-for-profit,37.0,61.0,Miami Gardens,FL,33054-6199,-80.270753,25.918278
190,Florida Southern College,4963.0,2476.0,635.0,82.0,60.0,490.0,590.0,500.0,590.0,480.0,580.0,22.0,27.0,Florida,Southeast AL AR FL GA KY LA MS NC SC TN VA WV,Four or more years,Private not-for-profit,58.0,61.0,Lakeland,FL,33801-5698,-81.948203,28.032443
191,Florida State University,29579.0,16803.0,6048.0,44.0,56.0,560.0,640.0,550.0,640.0,560.0,640.0,25.0,29.0,Florida,Southeast AL AR FL GA KY LA MS NC SC TN VA WV,Four or more years,Public,77.0,55.0,Tallahassee,FL,32306-1037,-84.291921,30.440756
192,University of Florida,27107.0,12618.0,6373.0,63.0,37.0,580.0,670.0,590.0,690.0,570.0,680.0,26.0,31.0,Florida,Southeast AL AR FL GA KY LA MS NC SC TN VA WV,Four or more years,Public,87.0,55.0,Gainesville,FL,32611,-82.347911,29.646290000000004
193,Jacksonville University,3498.0,1657.0,528.0,60.0,41.0,450.0,550.0,460.0,560.0,0.0,0.0,19.0,24.0,Florida,Southeast AL AR FL GA KY LA MS NC SC TN VA WV,Four or more years,Private not-for-profit,38.0,62.0,Jacksonville,FL,32211-3394,-81.60458,30.353227
194,Keiser University-Ft Lauderdale,4620.0,4311.0,3658.0,0.0,0.0,0.0,0.0,0.0,0.0,0.0,0.0,0.0,0.0,Florida,Southeast AL AR FL GA KY LA MS NC SC TN VA WV,Four or more years,Private not-for-profit,68.0,68.0,Fort Lauderdale,FL,33309,-80.16395899999999,26.185869
195,Trinity International University-Florida,0.0,0.0,0.0,0.0,0.0,0.0,0.0,0.0,0.0,0.0,0.0,0.0,0.0,Florida,Southeast AL AR FL GA KY LA MS NC SC TN VA WV,Four or more years,Private not-for-profit,0.0,68.0,Miami,FL,33186,-80.41764599999999,25.68307
196,University of Miami,28907.0,11691.0,2140.0,49.0,41.0,600.0,700.0,630.0,720.0,590.0,690.0,28.0,32.0,Florida,Southeast AL AR FL GA KY LA MS NC SC TN VA WV,Four or more years,Private not-for-profit,82.0,51.0,Coral Gables,FL,33146,-80.278662,25.72126
197,University of North Florida,10635.0,5682.0,1615.0,52.0,48.0,540.0,620.0,540.0,610.0,500.0,590.0,23.0,26.0,Florida,Southeast AL AR FL GA KY LA MS NC SC TN VA WV,Four or more years,Public,50.0,55.0,Jacksonville,FL,32224-7699,-81.50914399999999,30.27194
198,Nova Southeastern University,4328.0,2487.0,673.0,73.0,50.0,470.0,590.0,480.0,600.0,0.0,0.0,21.0,27.0,Florida,Southeast AL AR FL GA KY LA MS NC SC TN VA WV,Four or more years,Private not-for-profit,41.0,71.0,Fort Lauderdale,FL,33314-7796,-80.24248,26.079337
199,Palm Beach Atlantic University,1618.0,1361.0,587.0,75.0,64.0,470.0,590.0,455.0,590.0,0.0,0.0,20.0,26.0,Florida,Southeast AL AR FL GA KY LA MS NC SC TN VA WV,Four or more years,Private not-for-profit,48.0,63.0,West Palm Beach,FL,33401,-80.05247,26.7044
200,Rollins College,4729.0,2785.0,477.0,68.0,53.0,550.0,640.0,550.0,650.0,540.0,650.0,24.0,29.0,Florida,Southeast AL AR FL GA KY LA MS NC SC TN VA WV,Four or more years,Private not-for-profit,67.0,60.0,Winter Park,FL,32789-4499,-81.349239,28.592787
201,Saint Leo University,3178.0,2435.0,645.0,0.0,0.0,0.0,0.0,0.0,0.0,0.0,0.0,0.0,0.0,Florida,Southeast AL AR FL GA KY LA MS NC SC TN VA WV,Four or more years,Private not-for-profit,46.0,58.0,Saint Leo,FL,33574-6665,-82.257801,28.336776
202,St Petersburg College,0.0,0.0,0.0,0.0,0.0,0.0,0.0,0.0,0.0,0.0,0.0,0.0,0.0,Florida,Southeast AL AR FL GA KY LA MS NC SC TN VA WV,Four or more years,Public,0.0,60.0,Clearwater,FL,33760-2822,-82.717331,27.902420000000003
203,Stetson University,10509.0,6227.0,852.0,50.0,36.0,540.0,640.0,530.0,630.0,510.0,610.0,23.0,28.0,Florida,Southeast AL AR FL GA KY LA MS NC SC TN VA WV,Four or more years,Private not-for-profit,64.0,57.0,DeLand,FL,32723,-81.30074599999999,29.035475
204,Southeastern University,2124.0,1260.0,865.0,59.0,49.0,430.0,550.0,410.0,530.0,420.0,530.0,17.0,23.0,Florida,Southeast AL AR FL GA KY LA MS NC SC TN VA WV,Four or more years,Private not-for-profit,38.0,55.0,Lakeland,FL,33801-6034,-81.918382,28.029733
205,The University of Tampa,15345.0,8011.0,1592.0,75.0,47.0,480.0,570.0,500.0,580.0,480.0,560.0,21.0,26.0,Florida,Southeast AL AR FL GA KY LA MS NC SC TN VA WV,Four or more years,Private not-for-profit,61.0,55.0,Tampa,FL,33606-1490,-82.46483,27.948455
206,Warner University,1264.0,427.0,179.0,39.0,53.0,410.0,490.0,410.0,500.0,0.0,0.0,17.0,21.0,Florida,Southeast AL AR FL GA KY LA MS NC SC TN VA WV,Four or more years,Private not-for-profit,40.0,52.0,Lake Wales,FL,33859-8797,-81.599972,27.825751
207,Webber International University,944.0,602.0,207.0,63.0,64.0,330.0,530.0,342.0,547.0,0.0,0.0,17.0,24.0,Florida,Southeast AL AR FL GA KY LA MS NC SC TN VA WV,Four or more years,Private not-for-profit,33.0,31.0,Babson Park,FL,33827-0096,-81.532315,27.838778
208,The University of West Florida,12347.0,5937.0,1333.0,59.0,78.0,460.0,570.0,460.0,560.0,440.0,540.0,21.0,26.0,Florida,Southeast AL AR FL GA KY LA MS NC SC TN VA WV,Four or more years,Public,42.0,57.0,Pensacola,FL,32514-5750,-87.21851099999999,30.549076
209,Agnes Scott College,1340.0,896.0,254.0,0.0,0.0,0.0,0.0,0.0,0.0,0.0,0.0,0.0,0.0,Georgia,Southeast AL AR FL GA KY LA MS NC SC TN VA WV,Four or more years,Private not-for-profit,72.0,99.0,Decatur,GA,30030-3770,-84.295459,33.769268
210,Albany State University,8250.0,1643.0,501.0,70.0,56.0,420.0,480.0,400.0,470.0,0.0,0.0,17.0,20.0,Georgia,Southeast AL AR FL GA KY LA MS NC SC TN VA WV,Four or more years,Public,42.0,66.0,Albany,GA,31705,-84.141825,31.56928
211,Point University,934.0,500.0,238.0,63.0,63.0,420.0,535.0,420.0,510.0,0.0,0.0,18.0,22.0,Georgia,Southeast AL AR FL GA KY LA MS NC SC TN VA WV,Four or more years,Private not-for-profit,48.0,56.0,West Point,GA,31833,-85.184931,32.87912
212,Clark Atlanta University,5873.0,3336.0,781.0,60.0,50.0,390.0,470.0,380.0,470.0,0.0,0.0,17.0,21.0,Georgia,Southeast AL AR FL GA KY LA MS NC SC TN VA WV,Four or more years,Private not-for-profit,39.0,75.0,Atlanta,GA,30314-4391,-84.412584,33.747628000000006
213,Berry College,3901.0,2353.0,672.0,47.0,53.0,530.0,640.0,530.0,630.0,520.0,610.0,24.0,29.0,Georgia,Southeast AL AR FL GA KY LA MS NC SC TN VA WV,Four or more years,Private not-for-profit,60.0,62.0,Mount Berry,GA,30149,-85.18920200000001,34.290414
214,Brenau University,2160.0,1691.0,206.0,84.0,44.0,440.0,550.0,430.0,500.0,0.0,0.0,19.0,21.0,Georgia,Southeast AL AR FL GA KY LA MS NC SC TN VA WV,Four or more years,Private not-for-profit,45.0,89.0,Gainesville,GA,30501-3668,-83.821513,34.303117
215,Brewton-Parker College,475.0,244.0,150.0,75.0,51.0,400.0,490.0,410.0,500.0,370.0,480.0,17.0,20.0,Georgia,Southeast AL AR FL GA KY LA MS NC SC TN VA WV,Four or more years,Private not-for-profit,15.0,46.0,Mount Vernon,GA,30445,-82.586136,32.185718
216,Clayton  State University,2046.0,976.0,545.0,71.0,44.0,440.0,520.0,420.0,510.0,420.0,500.0,18.0,21.0,Georgia,Southeast AL AR FL GA KY LA MS NC SC TN VA WV,Four or more years,Public,29.0,70.0,Morrow,GA,30260-0285,-84.328174,33.594079
217,Columbus State University,3170.0,1757.0,1045.0,69.0,44.0,440.0,550.0,430.0,540.0,420.0,530.0,19.0,23.0,Georgia,Southeast AL AR FL GA KY LA MS NC SC TN VA WV,Four or more years,Public,31.0,59.0,Columbus,GA,31907-5645,-84.94106,32.50096
218,Covenant College,1129.0,644.0,268.0,72.0,58.0,530.0,670.0,530.0,630.0,530.0,650.0,23.0,28.0,Georgia,Southeast AL AR FL GA KY LA MS NC SC TN VA WV,Four or more years,Private not-for-profit,58.0,56.0,Lookout Mountain,GA,30750-4164,-85.375066,34.965161
219,Dalton State College,0.0,0.0,0.0,0.0,0.0,0.0,0.0,0.0,0.0,0.0,0.0,0.0,0.0,Georgia,Southeast AL AR FL GA KY LA MS NC SC TN VA WV,Four or more years,Public,21.0,61.0,Dalton,GA,30720-3797,-85.002775,34.774221000000004
220,Emmanuel College,876.0,419.0,156.0,93.0,11.0,410.0,510.0,420.0,530.0,0.0,0.0,0.0,0.0,Georgia,Southeast AL AR FL GA KY LA MS NC SC TN VA WV,Four or more years,Private not-for-profit,45.0,51.0,Franklin Springs,GA,30639,-83.14822,34.283640999999996
221,Emmanuel College,876.0,419.0,156.0,93.0,11.0,410.0,510.0,420.0,530.0,0.0,0.0,0.0,0.0,Georgia,Southeast AL AR FL GA KY LA MS NC SC TN VA WV,Four or more years,Private not-for-profit,45.0,51.0,Boston,MA,02115,-71.103634,42.340602000000004
222,Emmanuel College,6623.0,4006.0,515.0,93.0,18.0,500.0,590.0,500.0,590.0,510.0,600.0,21.0,26.0,Massachusetts,New England CT ME MA NH RI VT,Four or more years,Private not-for-profit,58.0,73.0,Franklin Springs,GA,30639,-83.14822,34.283640999999996
223,Emmanuel College,6623.0,4006.0,515.0,93.0,18.0,500.0,590.0,500.0,590.0,510.0,600.0,21.0,26.0,Massachusetts,New England CT ME MA NH RI VT,Four or more years,Private not-for-profit,58.0,73.0,Boston,MA,02115,-71.103634,42.340602000000004
224,Emory University,17475.0,4602.0,1363.0,76.0,45.0,620.0,710.0,650.0,750.0,640.0,730.0,29.0,32.0,Georgia,Southeast AL AR FL GA KY LA MS NC SC TN VA WV,Four or more years,Private not-for-profit,91.0,57.0,Atlanta,GA,30322,-84.325512,33.790183
225,Fort Valley State University,4076.0,1334.0,624.0,63.0,50.0,380.0,460.0,370.0,450.0,0.0,0.0,0.0,0.0,Georgia,Southeast AL AR FL GA KY LA MS NC SC TN VA WV,Four or more years,Public,30.0,57.0,Fort Valley,GA,31030-4313,-83.89537,32.537595
226,Georgia Institute of Technology-Main Campus,14645.0,8045.0,3044.0,88.0,53.0,600.0,700.0,660.0,760.0,610.0,700.0,28.0,32.0,Georgia,Southeast AL AR FL GA KY LA MS NC SC TN VA WV,Four or more years,Public,82.0,33.0,Atlanta,GA,30332-0530,-84.394832,33.772420000000004
227,Georgia Southwestern State University,1245.0,847.0,376.0,68.0,31.0,440.0,520.0,420.0,520.0,0.0,0.0,18.0,22.0,Georgia,Southeast AL AR FL GA KY LA MS NC SC TN VA WV,Four or more years,Public,36.0,64.0,Americus,GA,31709-4693,-84.217738,32.054662
228,Georgia Southern University,10525.0,5473.0,3604.0,75.0,52.0,520.0,590.0,510.0,600.0,490.0,570.0,21.0,25.0,Georgia,Southeast AL AR FL GA KY LA MS NC SC TN VA WV,Four or more years,Public,50.0,50.0,Statesboro,GA,30460-8126,-81.78404499999999,32.426153
229,Georgia State University,13890.0,7592.0,3460.0,86.0,45.0,480.0,580.0,480.0,590.0,0.0,0.0,20.0,25.0,Georgia,Southeast AL AR FL GA KY LA MS NC SC TN VA WV,Four or more years,Public,53.0,58.0,Atlanta,GA,30303-3083,-84.38667,33.7527
230,University of Georgia,18458.0,10352.0,4936.0,86.0,60.0,560.0,660.0,580.0,670.0,570.0,670.0,26.0,30.0,Georgia,Southeast AL AR FL GA KY LA MS NC SC TN VA WV,Four or more years,Public,82.0,57.0,Athens,GA,30602,-83.374039,33.956262
231,Kennesaw State University,9471.0,5355.0,3194.0,67.0,45.0,500.0,590.0,490.0,580.0,470.0,570.0,21.0,24.0,Georgia,Southeast AL AR FL GA KY LA MS NC SC TN VA WV,Four or more years,Public,43.0,58.0,Kennesaw,GA,30144,-84.583052,34.038807
232,LaGrange College,1648.0,962.0,271.0,65.0,56.0,460.0,550.0,450.0,540.0,0.0,0.0,19.0,23.0,Georgia,Southeast AL AR FL GA KY LA MS NC SC TN VA WV,Four or more years,Private not-for-profit,38.0,54.0,Lagrange,GA,30240-2999,-85.043113,33.038564
233,Life University,809.0,603.0,212.0,0.0,0.0,0.0,0.0,0.0,0.0,0.0,0.0,0.0,0.0,Georgia,Southeast AL AR FL GA KY LA MS NC SC TN VA WV,Four or more years,Private not-for-profit,22.0,49.0,Marietta,GA,30060,-84.514729,33.932781
234,Mercer University,3864.0,2666.0,728.0,61.0,38.0,540.0,630.0,540.0,640.0,0.0,0.0,23.0,28.0,Georgia,Southeast AL AR FL GA KY LA MS NC SC TN VA WV,Four or more years,Private not-for-profit,59.0,63.0,Macon,GA,31207,-83.64829499999999,32.831787
235,Morehouse College,2690.0,1798.0,488.0,67.0,52.0,450.0,550.0,450.0,560.0,430.0,550.0,18.0,23.0,Georgia,Southeast AL AR FL GA KY LA MS NC SC TN VA WV,Four or more years,Private not-for-profit,54.0,0.0,Atlanta,GA,30314,-84.414917,33.745982
236,University of North Georgia,0.0,0.0,0.0,0.0,0.0,0.0,0.0,0.0,0.0,0.0,0.0,0.0,0.0,Georgia,Southeast AL AR FL GA KY LA MS NC SC TN VA WV,Four or more years,Public,0.0,0.0,Dahlonega,GA,30597,-83.985694,34.530219
237,Oglethorpe University,4403.0,2455.0,282.0,76.0,52.0,520.0,630.0,510.0,610.0,490.0,610.0,22.0,27.0,Georgia,Southeast AL AR FL GA KY LA MS NC SC TN VA WV,Four or more years,Private not-for-profit,62.0,57.0,Atlanta,GA,30319-2797,-84.333687,33.875440999999995
238,Paine College,2771.0,1213.0,268.0,52.0,56.0,340.0,430.0,340.0,440.0,330.0,410.0,14.0,18.0,Georgia,Southeast AL AR FL GA KY LA MS NC SC TN VA WV,Four or more years,Private not-for-profit,21.0,49.0,Augusta,GA,30901-3182,-81.993225,33.469545000000004
239,Reinhardt University,1111.0,571.0,396.0,66.0,34.0,437.0,590.0,415.0,586.0,0.0,0.0,18.0,25.0,Georgia,Southeast AL AR FL GA KY LA MS NC SC TN VA WV,Four or more years,Private not-for-profit,28.0,50.0,Waleska,GA,30183-2981,-84.554264,34.319756
240,Savannah State University,2922.0,2425.0,1301.0,70.0,57.0,390.0,460.0,380.0,460.0,370.0,450.0,16.0,19.0,Georgia,Southeast AL AR FL GA KY LA MS NC SC TN VA WV,Four or more years,Public,29.0,55.0,Savannah,GA,31404-5310,-81.063377,32.024781
241,Shorter University,1597.0,1087.0,309.0,67.0,61.0,410.0,530.0,410.0,530.0,410.0,500.0,18.0,23.0,Georgia,Southeast AL AR FL GA KY LA MS NC SC TN VA WV,Four or more years,Private not-for-profit,46.0,57.0,Rome,GA,30165,-85.196529,34.257543
242,Spelman College,6081.0,2312.0,523.0,74.0,55.0,470.0,570.0,460.0,540.0,0.0,0.0,20.0,24.0,Georgia,Southeast AL AR FL GA KY LA MS NC SC TN VA WV,Four or more years,Private not-for-profit,68.0,100.0,Atlanta,GA,30314-4399,-84.411527,33.745279
243,Thomas University,153.0,105.0,66.0,0.0,0.0,0.0,0.0,0.0,0.0,0.0,0.0,0.0,0.0,Georgia,Southeast AL AR FL GA KY LA MS NC SC TN VA WV,Four or more years,Private not-for-profit,27.0,54.0,Thomasville,GA,31792,-83.963587,30.815576
244,Toccoa Falls College,1253.0,619.0,178.0,66.0,39.0,450.0,590.0,450.0,570.0,0.0,0.0,17.0,23.0,Georgia,Southeast AL AR FL GA KY LA MS NC SC TN VA WV,Four or more years,Private not-for-profit,46.0,53.0,Toccoa Falls,GA,30598,-83.357617,34.593414
245,Valdosta State University,5701.0,3148.0,1734.0,68.0,30.0,480.0,570.0,470.0,550.0,450.0,540.0,20.0,24.0,Georgia,Southeast AL AR FL GA KY LA MS NC SC TN VA WV,Four or more years,Public,40.0,59.0,Valdosta,GA,31698,-83.289282,30.847402000000002
246,Wesleyan College,779.0,338.0,117.0,81.0,35.0,450.0,570.0,430.0,560.0,420.0,540.0,17.0,22.0,Georgia,Southeast AL AR FL GA KY LA MS NC SC TN VA WV,Four or more years,Private not-for-profit,64.0,96.0,Macon,GA,31210-4462,-83.715417,32.876037
247,University of West Georgia,7266.0,3913.0,2214.0,76.0,52.0,440.0,520.0,430.0,510.0,420.0,510.0,18.0,22.0,Georgia,Southeast AL AR FL GA KY LA MS NC SC TN VA WV,Four or more years,Public,43.0,63.0,Carrollton,GA,30118-0001,-85.097762,33.573621
248,Chaminade University of Honolulu,914.0,764.0,267.0,72.0,29.0,430.0,520.0,440.0,540.0,0.0,0.0,19.0,23.0,Hawaii,Far West AK CA HI NV OR WA,Four or more years,Private not-for-profit,38.0,66.0,Honolulu,HI,96816-1578,-157.807851,21.28995
249,University of Hawaii at Hilo,1633.0,1228.0,461.0,89.0,8.0,410.0,540.0,430.0,550.0,400.0,510.0,19.0,23.0,Hawaii,Far West AK CA HI NV OR WA,Four or more years,Public,36.0,60.0,Hilo,HI,96720-4091,-155.080847,19.701189000000003
250,University of Hawaii at Manoa,6901.0,5527.0,1981.0,77.0,11.0,480.0,580.0,500.0,610.0,470.0,570.0,21.0,27.0,Hawaii,Far West AK CA HI NV OR WA,Four or more years,Public,57.0,55.0,Honolulu,HI,96822-2217,-157.818979,21.298598000000002
251,Hawaii Pacific University,4207.0,2697.0,591.0,58.0,36.0,430.0,550.0,440.0,560.0,0.0,0.0,19.0,25.0,Hawaii,Far West AK CA HI NV OR WA,Four or more years,Private not-for-profit,40.0,56.0,Honolulu,HI,96813,-157.859645,21.310306
252,University of Hawaii-West Oahu,908.0,694.0,301.0,76.0,4.0,400.0,480.0,400.0,500.0,380.0,470.0,16.0,22.0,Hawaii,Far West AK CA HI NV OR WA,Four or more years,Public,25.0,66.0,Kapolei,HI,96707-4507,-158.056403,21.35531
253,Boise State University,7832.0,6082.0,2205.0,76.0,56.0,460.0,570.0,460.0,580.0,0.0,0.0,20.0,26.0,Idaho,Rocky Mountains CO ID MT UT WY,Four or more years,Public,38.0,54.0,Boise,ID,83725,-116.203301,43.604284
254,Idaho State University,0.0,0.0,0.0,0.0,0.0,0.0,0.0,0.0,0.0,0.0,0.0,0.0,0.0,Idaho,Rocky Mountains CO ID MT UT WY,Four or more years,Public,31.0,53.0,Pocatello,ID,83209,-112.43231200000001,42.863832
255,University of Idaho,7455.0,4894.0,1643.0,51.0,71.0,480.0,590.0,480.0,590.0,460.0,570.0,20.0,26.0,Idaho,Rocky Mountains CO ID MT UT WY,Four or more years,Public,54.0,47.0,Moscow,ID,83844-2282,-117.01416699999999,46.727406
256,The College of Idaho,1116.0,1010.0,292.0,86.0,68.0,460.0,570.0,465.0,590.0,455.0,570.0,21.0,27.0,Idaho,Rocky Mountains CO ID MT UT WY,Four or more years,Private not-for-profit,67.0,55.0,Caldwell,ID,83605-4432,-116.67799199999999,43.652284
257,Lewis-Clark State College,861.0,859.0,475.0,63.0,45.0,400.0,510.0,420.0,520.0,0.0,0.0,18.0,22.0,Idaho,Rocky Mountains CO ID MT UT WY,Four or more years,Public,24.0,61.0,Lewiston,ID,83501-2698,-117.024875,46.412199
258,Northwest Nazarene University,1227.0,757.0,261.0,78.0,66.0,460.0,590.0,460.0,570.0,460.0,570.0,21.0,28.0,Idaho,Rocky Mountains CO ID MT UT WY,Four or more years,Private not-for-profit,49.0,56.0,Nampa,ID,83686-5897,-116.56578300000001,43.562411
259,Brigham Young University-Idaho,6690.0,6665.0,3448.0,37.0,84.0,450.0,560.0,440.0,560.0,0.0,0.0,20.0,25.0,Idaho,Rocky Mountains CO ID MT UT WY,Four or more years,Private not-for-profit,54.0,57.0,Rexburg,ID,83460-1690,-111.782431,43.818408000000005
260,Augustana College,5831.0,3421.0,627.0,0.0,0.0,0.0,0.0,0.0,0.0,0.0,0.0,0.0,0.0,Illinois,Great Lakes IL IN MI OH WI,Four or more years,Private not-for-profit,78.0,57.0,Rock Island,IL,61201-2296,-90.55057,41.502365000000005
261,Augustana College,1147.0,781.0,367.0,2.0,88.0,0.0,0.0,0.0,0.0,0.0,0.0,21.0,27.0,South Dakota,Plains IA KS MN MO NE ND SD,Four or more years,Private not-for-profit,66.0,59.0,Rock Island,IL,61201-2296,-90.55057,41.502365000000005
262,Aurora University,2536.0,1926.0,646.0,7.0,93.0,460.0,560.0,460.0,560.0,0.0,0.0,19.0,24.0,Illinois,Great Lakes IL IN MI OH WI,Four or more years,Private not-for-profit,58.0,63.0,Aurora,IL,60506-4892,-88.349023,41.753631
263,Blackburn College,528.0,359.0,116.0,4.0,94.0,520.0,570.0,500.0,620.0,0.0,0.0,19.0,25.0,Illinois,Great Lakes IL IN MI OH WI,Four or more years,Private not-for-profit,45.0,58.0,Carlinville,IL,62626,-89.87024100000001,39.287896
264,Bradley University,8969.0,6004.0,1085.0,7.0,97.0,500.0,640.0,510.0,630.0,490.0,620.0,23.0,28.0,Illinois,Great Lakes IL IN MI OH WI,Four or more years,Private not-for-profit,76.0,52.0,Peoria,IL,61625-0001,-89.616786,40.696896
265,Chicago State University,5219.0,1495.0,276.0,3.0,99.0,430.0,510.0,450.0,530.0,0.0,0.0,17.0,20.0,Illinois,Great Lakes IL IN MI OH WI,Four or more years,Public,21.0,71.0,Chicago,IL,60628-1598,-87.60938399999999,41.718446
266,University of Chicago,30304.0,2670.0,1426.0,70.0,51.0,720.0,800.0,720.0,790.0,700.0,780.0,32.0,35.0,Illinois,Great Lakes IL IN MI OH WI,Four or more years,Private not-for-profit,93.0,47.0,Chicago,IL,60637,-87.59953900000001,41.787994
267,Concordia University-Chicago,3692.0,2009.0,376.0,14.0,93.0,440.0,590.0,450.0,580.0,0.0,0.0,20.0,24.0,Illinois,Great Lakes IL IN MI OH WI,Four or more years,Private not-for-profit,53.0,60.0,River Forest,IL,60305-1499,-87.80948199999999,41.898696
268,DePaul University,19957.0,11948.0,2425.0,20.0,86.0,530.0,630.0,520.0,630.0,0.0,0.0,23.0,28.0,Illinois,Great Lakes IL IN MI OH WI,Four or more years,Private not-for-profit,70.0,54.0,Chicago,IL,60604,-87.62724,41.877618
269,East-West University,0.0,0.0,0.0,0.0,0.0,0.0,0.0,0.0,0.0,0.0,0.0,0.0,0.0,Illinois,Great Lakes IL IN MI OH WI,Four or more years,Private not-for-profit,11.0,58.0,Chicago,IL,60605,-87.62479300000001,41.871309000000004
270,Eastern Illinois University,7881.0,4879.0,1333.0,0.0,99.0,0.0,0.0,0.0,0.0,0.0,0.0,19.0,24.0,Illinois,Great Lakes IL IN MI OH WI,Four or more years,Public,60.0,60.0,Charleston,IL,61920,-88.175658,39.479843
271,Eureka College,960.0,651.0,138.0,8.0,92.0,565.0,665.0,530.0,650.0,565.0,585.0,19.0,26.0,Illinois,Great Lakes IL IN MI OH WI,Four or more years,Private not-for-profit,61.0,59.0,Eureka,IL,61530,-89.269624,40.71482
272,Governors State University,0.0,0.0,0.0,0.0,0.0,0.0,0.0,0.0,0.0,0.0,0.0,0.0,0.0,Illinois,Great Lakes IL IN MI OH WI,Four or more years,Public,0.0,68.0,University Park,IL,60484,-87.716441,41.449103
273,Benedictine University,2108.0,1465.0,635.0,0.0,91.0,0.0,0.0,0.0,0.0,0.0,0.0,19.0,25.0,Illinois,Great Lakes IL IN MI OH WI,Four or more years,Private not-for-profit,52.0,61.0,Lisle,IL,60532-0900,-88.097307,41.777569
274,Illinois Wesleyan University,3556.0,2076.0,529.0,15.0,89.0,510.0,620.0,570.0,740.0,0.0,0.0,25.0,30.0,Illinois,Great Lakes IL IN MI OH WI,Four or more years,Private not-for-profit,78.0,56.0,Bloomington,IL,61702-2900,-88.992014,40.489901
275,Illinois College,2560.0,1569.0,270.0,10.0,85.0,410.0,540.0,410.0,580.0,420.0,510.0,19.0,25.0,Illinois,Great Lakes IL IN MI OH WI,Four or more years,Private not-for-profit,64.0,50.0,Jacksonville,IL,62650-2299,-90.24617099999999,39.7313
276,Illinois Institute of Technology,2840.0,1618.0,465.0,27.0,74.0,520.0,640.0,640.0,740.0,520.0,640.0,25.0,30.0,Illinois,Great Lakes IL IN MI OH WI,Four or more years,Private not-for-profit,63.0,30.0,Chicago,IL,60616,-87.627321,41.8313
277,Illinois State University,15354.0,10582.0,2981.0,0.0,99.0,0.0,0.0,0.0,0.0,0.0,0.0,22.0,26.0,Illinois,Great Lakes IL IN MI OH WI,Four or more years,Public,72.0,55.0,Normal,IL,61790-1000,-88.99005799999999,40.509403000000006
278,Judson University,737.0,521.0,201.0,11.0,88.0,460.0,540.0,500.0,590.0,0.0,0.0,18.0,27.0,Illinois,Great Lakes IL IN MI OH WI,Four or more years,Private not-for-profit,50.0,56.0,Elgin,IL,60123-1498,-88.291336,42.061754
279,Knox College,2660.0,1994.0,380.0,0.0,0.0,0.0,0.0,0.0,0.0,0.0,0.0,0.0,0.0,Illinois,Great Lakes IL IN MI OH WI,Four or more years,Private not-for-profit,79.0,57.0,Galesburg,IL,61401,-90.373165,40.943064
280,Lake Forest College,3684.0,2110.0,403.0,23.0,78.0,510.0,620.0,510.0,620.0,510.0,610.0,23.0,28.0,Illinois,Great Lakes IL IN MI OH WI,Four or more years,Private not-for-profit,64.0,58.0,Lake Forest,IL,60045-2399,-87.827454,42.249573999999996
281,Lewis University,5432.0,3035.0,694.0,3.0,96.0,440.0,550.0,480.0,590.0,440.0,540.0,21.0,26.0,Illinois,Great Lakes IL IN MI OH WI,Four or more years,Private not-for-profit,63.0,56.0,Romeoville,IL,60446-2200,-88.079032,41.605432
282,Lincoln College,1101.0,963.0,371.0,0.0,90.0,0.0,0.0,0.0,0.0,0.0,0.0,16.0,19.0,Illinois,Great Lakes IL IN MI OH WI,Four or more years,Private not-for-profit,0.0,57.0,Lincoln,IL,62656,-89.36153,40.155442
283,Loyola University Chicago,14355.0,13121.0,2512.0,23.0,86.0,520.0,630.0,530.0,630.0,520.0,630.0,24.0,29.0,Illinois,Great Lakes IL IN MI OH WI,Four or more years,Private not-for-profit,71.0,64.0,Chicago,IL,60660,-87.65687199999999,42.000765
284,MacMurray College,1027.0,769.0,120.0,8.0,98.0,360.0,470.0,390.0,540.0,0.0,0.0,19.0,22.0,Illinois,Great Lakes IL IN MI OH WI,Four or more years,Private not-for-profit,38.0,56.0,Jacksonville,IL,62650-2590,-90.223986,39.730918
285,McKendree University,1617.0,1017.0,387.0,7.0,93.0,450.0,520.0,490.0,530.0,430.0,520.0,20.0,25.0,Illinois,Great Lakes IL IN MI OH WI,Four or more years,Private not-for-profit,48.0,56.0,Lebanon,IL,62254-1291,-89.816822,38.608154
286,Millikin University,3906.0,2153.0,451.0,6.0,96.0,490.0,570.0,440.0,580.0,450.0,590.0,21.0,26.0,Illinois,Great Lakes IL IN MI OH WI,Four or more years,Private not-for-profit,60.0,59.0,Decatur,IL,62522-2084,-88.976298,39.842612
287,Monmouth College,2973.0,1912.0,392.0,1.0,95.0,490.0,540.0,470.0,510.0,480.0,570.0,20.0,25.0,Illinois,Great Lakes IL IN MI OH WI,Four or more years,Private not-for-profit,58.0,55.0,Monmouth,IL,61462-1998,-90.63731,40.914823999999996
288,National Louis University,84.0,83.0,25.0,0.0,0.0,0.0,0.0,0.0,0.0,0.0,0.0,0.0,0.0,Illinois,Great Lakes IL IN MI OH WI,Four or more years,Private not-for-profit,43.0,77.0,Chicago,IL,60603,-87.62469899999999,41.880093
289,North Central College,4082.0,2598.0,529.0,6.0,96.0,0.0,0.0,0.0,0.0,0.0,0.0,22.0,27.0,Illinois,Great Lakes IL IN MI OH WI,Four or more years,Private not-for-profit,64.0,55.0,Naperville,IL,60540,-88.14279,41.77576
290,North Park University,3961.0,2073.0,373.0,19.0,86.0,0.0,0.0,465.0,580.0,470.0,588.0,19.0,25.0,Illinois,Great Lakes IL IN MI OH WI,Four or more years,Private not-for-profit,56.0,63.0,Chicago,IL,60625-4895,-87.709948,41.975268
291,Northern Illinois University,25914.0,14545.0,2679.0,3.0,96.0,450.0,550.0,450.0,580.0,430.0,530.0,19.0,24.0,Illinois,Great Lakes IL IN MI OH WI,Four or more years,Public,51.0,50.0,Dekalb,IL,60115-2828,-88.766428,41.933869
292,Northwestern University,32060.0,4912.0,2037.0,64.0,60.0,690.0,760.0,700.0,790.0,690.0,770.0,31.0,34.0,Illinois,Great Lakes IL IN MI OH WI,Four or more years,Private not-for-profit,94.0,51.0,Evanston,IL,60208,-87.679858,42.050356
293,Northeastern Illinois University,5350.0,3200.0,808.0,0.0,95.0,0.0,0.0,0.0,0.0,0.0,0.0,16.0,21.0,Illinois,Great Lakes IL IN MI OH WI,Four or more years,Public,20.0,55.0,Chicago,IL,60625-4699,-87.718983,41.980399
294,Olivet Nazarene University,3719.0,3048.0,753.0,0.0,96.0,0.0,0.0,0.0,0.0,0.0,0.0,21.0,27.0,Illinois,Great Lakes IL IN MI OH WI,Four or more years,Private not-for-profit,57.0,63.0,Bourbonnais,IL,60914-2271,-87.875165,41.155237
295,Quincy University,1078.0,955.0,275.0,3.0,97.0,410.0,500.0,500.0,570.0,0.0,0.0,20.0,25.0,Illinois,Great Lakes IL IN MI OH WI,Four or more years,Private not-for-profit,50.0,56.0,Quincy,IL,62301-2699,-91.385975,39.938897999999995
296,Robert Morris University Illinois,4080.0,857.0,719.0,0.0,0.0,0.0,0.0,0.0,0.0,0.0,0.0,0.0,0.0,Illinois,Great Lakes IL IN MI OH WI,Four or more years,Private not-for-profit,80.0,51.0,Chicago,IL,60605,-87.62706800000001,41.876278000000006
297,Rockford University,1074.0,440.0,113.0,6.0,92.0,363.0,553.0,453.0,665.0,410.0,528.0,19.0,25.0,Illinois,Great Lakes IL IN MI OH WI,Four or more years,Private not-for-profit,39.0,63.0,Rockford,IL,61108-2311,-89.019536,42.270639
298,Roosevelt University,3370.0,2655.0,444.0,13.0,87.0,480.0,630.0,440.0,590.0,480.0,580.0,19.0,25.0,Illinois,Great Lakes IL IN MI OH WI,Four or more years,Private not-for-profit,41.0,62.0,Chicago,IL,60605-1394,-87.62495200000001,41.876055
299,Dominican University,3502.0,2100.0,497.0,3.0,99.0,490.0,540.0,480.0,620.0,490.0,570.0,20.0,24.0,Illinois,Great Lakes IL IN MI OH WI,Four or more years,Private not-for-profit,63.0,66.0,River Forest,IL,60305,-87.823003,41.902678
300,University of St Francis,1706.0,877.0,237.0,4.0,96.0,480.0,610.0,440.0,620.0,460.0,600.0,21.0,25.0,Illinois,Great Lakes IL IN MI OH WI,Four or more years,Private not-for-profit,57.0,68.0,Joliet,IL,60435-6188,-88.096057,41.532225
301,Saint Xavier University,10513.0,5313.0,594.0,4.0,99.0,455.0,570.0,440.0,545.0,455.0,540.0,19.0,24.0,Illinois,Great Lakes IL IN MI OH WI,Four or more years,Private not-for-profit,47.0,67.0,Chicago,IL,60655,-87.714749,41.707198999999996
302,Southern Illinois University-Carbondale,11634.0,9176.0,2612.0,6.0,94.0,450.0,590.0,470.0,620.0,0.0,0.0,19.0,25.0,Illinois,Great Lakes IL IN MI OH WI,Four or more years,Public,44.0,45.0,Carbondale,IL,62901-4512,-89.21727299999999,37.714193
303,Southern Illinois University-Edwardsville,7646.0,6437.0,1966.0,2.0,98.0,470.0,580.0,480.0,590.0,460.0,560.0,20.0,25.0,Illinois,Great Lakes IL IN MI OH WI,Four or more years,Public,50.0,53.0,Edwardsville,IL,62026-1259,-89.99777900000001,38.793949
304,Trinity Christian College,583.0,526.0,205.0,6.0,94.0,450.0,640.0,460.0,630.0,430.0,610.0,20.0,25.0,Illinois,Great Lakes IL IN MI OH WI,Four or more years,Private not-for-profit,58.0,65.0,Palos Heights,IL,60463-0929,-87.783973,41.667687
305,Trinity International University-Illinois,446.0,418.0,182.0,24.0,83.0,460.0,600.0,470.0,560.0,0.0,0.0,20.0,25.0,Illinois,Great Lakes IL IN MI OH WI,Four or more years,Private not-for-profit,45.0,49.0,Deerfield,IL,60015-1283,-87.880851,42.197945000000004
306,Western Illinois University,10554.0,6260.0,1652.0,0.0,98.0,0.0,0.0,0.0,0.0,0.0,0.0,18.0,23.0,Illinois,Great Lakes IL IN MI OH WI,Four or more years,Public,56.0,49.0,Macomb,IL,61455,-90.686899,40.468086
307,Wheaton College,1959.0,1346.0,598.0,58.0,62.0,600.0,720.0,610.0,700.0,600.0,710.0,27.0,32.0,Illinois,Great Lakes IL IN MI OH WI,Four or more years,Private not-for-profit,87.0,51.0,Wheaton,IL,60187-5593,-88.099643,41.870176
308,Wheaton College,1959.0,1346.0,598.0,58.0,62.0,600.0,720.0,610.0,700.0,600.0,710.0,27.0,32.0,Illinois,Great Lakes IL IN MI OH WI,Four or more years,Private not-for-profit,87.0,51.0,Norton,MA,02766-2322,-71.18397900000001,41.966637
309,Wheaton College,3944.0,2657.0,466.0,0.0,0.0,0.0,0.0,0.0,0.0,0.0,0.0,0.0,0.0,Massachusetts,New England CT ME MA NH RI VT,Four or more years,Private not-for-profit,76.0,65.0,Wheaton,IL,60187-5593,-88.099643,41.870176
310,Wheaton College,3944.0,2657.0,466.0,0.0,0.0,0.0,0.0,0.0,0.0,0.0,0.0,0.0,0.0,Massachusetts,New England CT ME MA NH RI VT,Four or more years,Private not-for-profit,76.0,65.0,Norton,MA,02766-2322,-71.18397900000001,41.966637
311,Anderson University,2734.0,1516.0,444.0,76.0,62.0,470.0,570.0,470.0,570.0,0.0,0.0,21.0,25.0,Indiana,Great Lakes IL IN MI OH WI,Four or more years,Private not-for-profit,57.0,60.0,Anderson,IN,46012-3495,-85.664315,40.112768
312,Anderson University,2734.0,1516.0,444.0,76.0,62.0,470.0,570.0,470.0,570.0,0.0,0.0,21.0,25.0,Indiana,Great Lakes IL IN MI OH WI,Four or more years,Private not-for-profit,57.0,60.0,Anderson,SC,29621-4035,-82.64035799999999,34.5152
313,Anderson University,2190.0,1424.0,502.0,82.0,68.0,480.0,600.0,480.0,580.0,460.0,580.0,21.0,26.0,South Carolina,Southeast AL AR FL GA KY LA MS NC SC TN VA WV,Four or more years,Private not-for-profit,41.0,67.0,Anderson,IN,46012-3495,-85.664315,40.112768
314,Anderson University,2190.0,1424.0,502.0,82.0,68.0,480.0,600.0,480.0,580.0,460.0,580.0,21.0,26.0,South Carolina,Southeast AL AR FL GA KY LA MS NC SC TN VA WV,Four or more years,Private not-for-profit,41.0,67.0,Anderson,SC,29621-4035,-82.64035799999999,34.5152
315,Ball State University,17118.0,10364.0,3616.0,58.0,41.0,490.0,590.0,490.0,570.0,480.0,570.0,20.0,24.0,Indiana,Great Lakes IL IN MI OH WI,Four or more years,Public,60.0,58.0,Muncie,IN,47306,-85.40904300000001,40.203431
316,Butler University,9357.0,6185.0,1015.0,56.0,79.0,530.0,630.0,530.0,640.0,520.0,630.0,25.0,30.0,Indiana,Great Lakes IL IN MI OH WI,Four or more years,Private not-for-profit,74.0,61.0,Indianapolis,IN,46208,-86.172167,39.8374
317,Calumet College of Saint Joseph,545.0,218.0,192.0,46.0,26.0,390.0,460.0,390.0,480.0,340.0,442.0,15.0,20.0,Indiana,Great Lakes IL IN MI OH WI,Four or more years,Private not-for-profit,27.0,44.0,Whiting,IN,46394,-87.494123,41.671008
318,DePauw University,5086.0,3113.0,641.0,40.0,65.0,520.0,650.0,550.0,680.0,530.0,630.0,25.0,29.0,Indiana,Great Lakes IL IN MI OH WI,Four or more years,Private not-for-profit,79.0,55.0,Greencastle,IN,46135-1772,-86.860363,39.640904
319,Earlham College,1890.0,1204.0,254.0,39.0,30.0,590.0,700.0,560.0,640.0,520.0,640.0,26.0,31.0,Indiana,Great Lakes IL IN MI OH WI,Four or more years,Private not-for-profit,71.0,55.0,Richmond,IN,47374-4095,-84.915037,39.823431
320,University of Evansville,2935.0,2468.0,543.0,59.0,65.0,490.0,600.0,500.0,620.0,480.0,600.0,23.0,29.0,Indiana,Great Lakes IL IN MI OH WI,Four or more years,Private not-for-profit,63.0,58.0,Evansville,IN,47722,-87.531644,37.971548999999996
321,Franklin College,2221.0,1333.0,296.0,88.0,52.0,450.0,550.0,460.0,560.0,430.0,540.0,19.0,24.0,Indiana,Great Lakes IL IN MI OH WI,Four or more years,Private not-for-profit,57.0,50.0,Franklin,IN,46131-2623,-86.04718199999999,39.478297999999995
322,Goshen College,770.0,424.0,167.0,68.0,38.0,470.0,620.0,480.0,630.0,0.0,0.0,21.0,30.0,Indiana,Great Lakes IL IN MI OH WI,Four or more years,Private not-for-profit,70.0,57.0,Goshen,IN,46526-4794,-85.827795,41.563582000000004
323,Grace College and Theological Seminary,3450.0,2720.0,347.0,68.0,54.0,457.0,580.0,460.0,570.0,0.0,0.0,20.0,26.0,Indiana,Great Lakes IL IN MI OH WI,Four or more years,Private not-for-profit,61.0,59.0,Winona Lake,IN,46590-1274,-85.814228,41.22595
324,Hanover College,3174.0,2118.0,334.0,53.0,44.0,490.0,600.0,510.0,600.0,480.0,570.0,23.0,28.0,Indiana,Great Lakes IL IN MI OH WI,Four or more years,Private not-for-profit,72.0,57.0,Hanover,IN,47243,-85.460051,38.715641999999995
325,Holy Cross College,715.0,517.0,157.0,46.0,50.0,440.0,550.0,430.0,530.0,400.0,520.0,19.0,26.0,Indiana,Great Lakes IL IN MI OH WI,Four or more years,Private not-for-profit,45.0,37.0,Notre Dame,IN,46556-0308,-86.253822,41.698996
326,Huntington University,784.0,763.0,227.0,68.0,64.0,440.0,570.0,440.0,560.0,423.0,550.0,21.0,27.0,Indiana,Great Lakes IL IN MI OH WI,Four or more years,Private not-for-profit,62.0,57.0,Huntington,IN,46750,-85.49731700000001,40.898152
327,Indiana University-Purdue University-Indianapolis,12230.0,8510.0,3796.0,84.0,41.0,440.0,550.0,450.0,570.0,430.0,540.0,19.0,25.0,Indiana,Great Lakes IL IN MI OH WI,Four or more years,Public,42.0,57.0,Indianapolis,IN,46202-5143,-86.172217,39.772948
328,University of Indianapolis,5313.0,4486.0,830.0,82.0,53.0,450.0,550.0,460.0,560.0,440.0,540.0,19.0,25.0,Indiana,Great Lakes IL IN MI OH WI,Four or more years,Private not-for-profit,57.0,67.0,Indianapolis,IN,46227-3697,-86.133969,39.709571000000004
329,University of Southern Indiana,6204.0,4302.0,1709.0,65.0,50.0,440.0,550.0,450.0,560.0,430.0,530.0,19.0,24.0,Indiana,Great Lakes IL IN MI OH WI,Four or more years,Public,37.0,59.0,Evansville,IN,47712,-87.677214,37.962374
330,Indiana State University,11019.0,9152.0,2661.0,74.0,41.0,400.0,510.0,400.0,510.0,390.0,490.0,16.0,22.0,Indiana,Great Lakes IL IN MI OH WI,Four or more years,Public,42.0,54.0,Terre Haute,IN,47809,-87.40784599999999,39.469073
331,Indiana University-Kokomo,1066.0,784.0,508.0,85.0,20.0,430.0,520.0,420.0,520.0,410.0,510.0,18.0,23.0,Indiana,Great Lakes IL IN MI OH WI,Four or more years,Public,28.0,64.0,Kokomo,IN,46902-9003,-86.132048,40.460062
332,Indiana University-South Bend,2456.0,1720.0,921.0,83.0,16.0,430.0,530.0,430.0,530.0,400.0,500.0,18.0,23.0,Indiana,Great Lakes IL IN MI OH WI,Four or more years,Public,26.0,61.0,South Bend,IN,46615-7111,-86.221991,41.665324
333,Indiana University-Bloomington,37826.0,27300.0,7604.0,72.0,64.0,520.0,630.0,540.0,660.0,510.0,620.0,24.0,30.0,Indiana,Great Lakes IL IN MI OH WI,Four or more years,Public,77.0,51.0,Bloomington,IN,47405-7000,-86.52655899999999,39.166090000000004
334,Indiana University-Northwest,1773.0,1352.0,830.0,68.0,39.0,390.0,510.0,390.0,510.0,390.0,500.0,17.0,23.0,Indiana,Great Lakes IL IN MI OH WI,Four or more years,Public,24.0,66.0,Gary,IN,46408-1197,-87.337249,41.557324
335,Indiana University-Southeast,2097.0,1666.0,1026.0,64.0,48.0,420.0,530.0,430.0,520.0,410.0,510.0,17.0,23.0,Indiana,Great Lakes IL IN MI OH WI,Four or more years,Public,30.0,58.0,New Albany,IN,47150,-85.819985,38.345191
336,Indiana University-East,1219.0,656.0,404.0,67.0,46.0,410.0,520.0,410.0,510.0,400.0,490.0,18.0,23.0,Indiana,Great Lakes IL IN MI OH WI,Four or more years,Public,24.0,65.0,Richmond,IN,47374-1289,-84.881923,39.868707
337,Manchester University,2195.0,1562.0,359.0,85.0,49.0,440.0,560.0,450.0,570.0,420.0,540.0,19.0,25.0,Indiana,Great Lakes IL IN MI OH WI,Four or more years,Private not-for-profit,48.0,53.0,North Manchester,IN,46962,-85.76264300000001,41.010549
338,Marian University,2064.0,1196.0,338.0,80.0,60.0,460.0,550.0,460.0,570.0,0.0,0.0,19.0,25.0,Indiana,Great Lakes IL IN MI OH WI,Four or more years,Private not-for-profit,52.0,64.0,Indianapolis,IN,46222-1997,-86.20264300000001,39.813233000000004
339,Marian University,2064.0,1196.0,338.0,80.0,60.0,460.0,550.0,460.0,570.0,0.0,0.0,19.0,25.0,Indiana,Great Lakes IL IN MI OH WI,Four or more years,Private not-for-profit,52.0,64.0,Fond Du Lac,WI,54935-4699,-88.420638,43.777411
340,Marian University,1021.0,772.0,251.0,1.0,94.0,0.0,0.0,0.0,0.0,0.0,0.0,18.0,22.0,Wisconsin,Great Lakes IL IN MI OH WI,Four or more years,Private not-for-profit,49.0,71.0,Indianapolis,IN,46222-1997,-86.20264300000001,39.813233000000004
341,Marian University,1021.0,772.0,251.0,1.0,94.0,0.0,0.0,0.0,0.0,0.0,0.0,18.0,22.0,Wisconsin,Great Lakes IL IN MI OH WI,Four or more years,Private not-for-profit,49.0,71.0,Fond Du Lac,WI,54935-4699,-88.420638,43.777411
342,Martin University,0.0,0.0,0.0,0.0,0.0,0.0,0.0,0.0,0.0,0.0,0.0,0.0,0.0,Indiana,Great Lakes IL IN MI OH WI,Four or more years,Private not-for-profit,12.0,68.0,Indianapolis,IN,46218-0567,-86.103953,39.798144
343,University of Notre Dame,17647.0,3936.0,2070.0,44.0,56.0,660.0,750.0,680.0,770.0,0.0,0.0,32.0,34.0,Indiana,Great Lakes IL IN MI OH WI,Four or more years,Private not-for-profit,95.0,47.0,Notre Dame,IN,46556,-86.238959,41.703058
344,Oakland City University,652.0,475.0,108.0,56.0,48.0,430.0,530.0,440.0,540.0,410.0,520.0,19.0,24.0,Indiana,Great Lakes IL IN MI OH WI,Four or more years,Private not-for-profit,53.0,61.0,Oakland City,IN,47660-1099,-87.35144,38.340891
345,University of Saint Francis-Fort Wayne,1908.0,1023.0,388.0,77.0,52.0,440.0,530.0,450.0,530.0,430.0,520.0,19.0,23.0,Indiana,Great Lakes IL IN MI OH WI,Four or more years,Private not-for-profit,51.0,71.0,Fort Wayne,IN,46808-3994,-85.177246,41.087205
346,Saint Mary-of-the-Woods College,325.0,317.0,64.0,69.0,31.0,390.0,520.0,390.0,500.0,400.0,510.0,15.0,22.0,Indiana,Great Lakes IL IN MI OH WI,Four or more years,Private not-for-profit,60.0,97.0,Saint Mary of the Woods,IN,47876-1099,-87.463791,39.508546
347,Saint Mary's College,1529.0,1310.0,437.0,45.0,77.0,500.0,610.0,490.0,600.0,500.0,600.0,23.0,28.0,Indiana,Great Lakes IL IN MI OH WI,Four or more years,Private not-for-profit,71.0,100.0,Notre Dame,IN,46556,-86.256947,41.707274
348,Taylor University,1637.0,1434.0,459.0,41.0,59.0,520.0,660.0,510.0,650.0,500.0,620.0,24.0,31.0,Indiana,Great Lakes IL IN MI OH WI,Four or more years,Private not-for-profit,74.0,55.0,Upland,IN,46989-1001,-85.497034,40.456246
349,Trine University,2867.0,2052.0,421.0,40.0,60.0,470.0,570.0,500.0,620.0,0.0,0.0,21.0,27.0,Indiana,Great Lakes IL IN MI OH WI,Four or more years,Private not-for-profit,51.0,35.0,Angola,IN,46703-1764,-85.008009,41.632502
350,Valparaiso University,6124.0,4880.0,876.0,41.0,73.0,500.0,590.0,510.0,620.0,480.0,580.0,23.0,29.0,Indiana,Great Lakes IL IN MI OH WI,Four or more years,Private not-for-profit,70.0,52.0,Valparaiso,IN,46383,-87.040172,41.462239000000004
351,Wabash College,0.0,0.0,0.0,0.0,0.0,0.0,0.0,0.0,0.0,0.0,0.0,0.0,0.0,Indiana,Great Lakes IL IN MI OH WI,Four or more years,Private not-for-profit,69.0,0.0,Crawfordsville,IN,47933-0352,-86.906,40.037588
352,Briar Cliff University,0.0,0.0,0.0,0.0,0.0,0.0,0.0,0.0,0.0,0.0,0.0,0.0,0.0,Iowa,Plains IA KS MN MO NE ND SD,Four or more years,Private not-for-profit,45.0,57.0,Sioux City,IA,51104,-96.428444,42.526443
353,Buena Vista University,1409.0,980.0,269.0,3.0,97.0,0.0,0.0,0.0,0.0,0.0,0.0,20.0,25.0,Iowa,Plains IA KS MN MO NE ND SD,Four or more years,Private not-for-profit,53.0,66.0,Storm Lake,IA,50588,-95.208529,42.642255
354,Central College,2842.0,1870.0,309.0,4.0,97.0,470.0,580.0,450.0,620.0,0.0,0.0,21.0,26.0,Iowa,Plains IA KS MN MO NE ND SD,Four or more years,Private not-for-profit,65.0,53.0,Pella,IA,50219,-92.92219899999999,41.401539
355,Clarke University,1250.0,969.0,181.0,6.0,96.0,470.0,530.0,475.0,550.0,0.0,0.0,20.0,25.0,Iowa,Plains IA KS MN MO NE ND SD,Four or more years,Private not-for-profit,70.0,66.0,Dubuque,IA,52001-3198,-90.690487,42.509475
356,Coe College,2972.0,1834.0,390.0,9.0,94.0,493.0,693.0,495.0,670.0,458.0,660.0,23.0,28.0,Iowa,Plains IA KS MN MO NE ND SD,Four or more years,Private not-for-profit,67.0,54.0,Cedar Rapids,IA,52402-5092,-91.658192,41.988263
357,Cornell College,2204.0,1413.0,261.0,32.0,83.0,520.0,670.0,510.0,650.0,510.0,630.0,23.0,29.0,Iowa,Plains IA KS MN MO NE ND SD,Four or more years,Private not-for-profit,68.0,55.0,Mount Vernon,IA,52314-1098,-91.423741,41.924554
358,Drake University,5930.0,3911.0,850.0,10.0,96.0,530.0,640.0,540.0,680.0,0.0,0.0,25.0,30.0,Iowa,Plains IA KS MN MO NE ND SD,Four or more years,Private not-for-profit,70.0,56.0,Des Moines,IA,50311-4505,-93.652163,41.601290000000006
359,University of Dubuque,1457.0,1128.0,447.0,15.0,87.0,410.0,490.0,390.0,520.0,0.0,0.0,17.0,22.0,Iowa,Plains IA KS MN MO NE ND SD,Four or more years,Private not-for-profit,47.0,43.0,Dubuque,IA,52001,-90.693428,42.49726
360,Graceland University-Lamoni,1981.0,994.0,326.0,25.0,75.0,390.0,520.0,373.0,530.0,0.0,0.0,18.0,24.0,Iowa,Plains IA KS MN MO NE ND SD,Four or more years,Private not-for-profit,47.0,57.0,Lamoni,IA,50140,-93.92489300000001,40.615966
361,Grand View University,807.0,770.0,298.0,8.0,94.0,380.0,450.0,400.0,480.0,360.0,440.0,19.0,23.0,Iowa,Plains IA KS MN MO NE ND SD,Four or more years,Private not-for-profit,48.0,58.0,Des Moines,IA,50316,-93.604352,41.620813
362,Grinnell College,3979.0,1395.0,423.0,49.0,51.0,620.0,730.0,630.0,770.0,0.0,0.0,28.0,32.0,Iowa,Plains IA KS MN MO NE ND SD,Four or more years,Private not-for-profit,86.0,54.0,Grinnell,IA,50112-1690,-92.722094,41.747952000000005
363,Iowa State University,16539.0,13648.0,5366.0,8.0,93.0,460.0,620.0,530.0,680.0,0.0,0.0,22.0,28.0,Iowa,Plains IA KS MN MO NE ND SD,Four or more years,Public,68.0,43.0,Ames,IA,50011-2103,-93.648504,42.026212
364,University of Iowa,21642.0,17363.0,4460.0,10.0,86.0,540.0,620.0,620.0,680.0,0.0,0.0,25.0,28.0,Iowa,Plains IA KS MN MO NE ND SD,Four or more years,Public,70.0,52.0,Iowa City,IA,52242-1316,-91.536425,41.661935
365,Loras College,1873.0,1293.0,414.0,2.0,98.0,435.0,575.0,393.0,560.0,0.0,0.0,21.0,26.0,Iowa,Plains IA KS MN MO NE ND SD,Four or more years,Private not-for-profit,61.0,48.0,Dubuque,IA,52004-0178,-90.679023,42.503908
366,Luther College,3490.0,2517.0,628.0,11.0,91.0,433.0,610.0,500.0,638.0,460.0,580.0,23.0,29.0,Iowa,Plains IA KS MN MO NE ND SD,Four or more years,Private not-for-profit,76.0,57.0,Decorah,IA,52101-1045,-91.802809,43.312304
367,Morningside College,3721.0,1986.0,367.0,0.0,100.0,0.0,0.0,0.0,0.0,0.0,0.0,20.0,25.0,Iowa,Plains IA KS MN MO NE ND SD,Four or more years,Private not-for-profit,58.0,53.0,Sioux City,IA,51106-1751,-96.359464,42.473890999999995
368,Mount Mercy University,542.0,371.0,154.0,0.0,100.0,0.0,0.0,0.0,0.0,0.0,0.0,20.0,23.0,Iowa,Plains IA KS MN MO NE ND SD,Four or more years,Private not-for-profit,73.0,69.0,Cedar Rapids,IA,52402-4797,-91.650991,42.001931
369,University of Northern Iowa,4068.0,3389.0,1722.0,2.0,94.0,0.0,0.0,500.0,640.0,0.0,0.0,20.0,24.0,Iowa,Plains IA KS MN MO NE ND SD,Four or more years,Public,66.0,57.0,Cedar Falls,IA,50614-0005,-92.459703,42.514922999999996
370,Northwestern College,1221.0,929.0,284.0,17.0,91.0,423.0,605.0,470.0,580.0,420.0,560.0,21.0,27.0,Iowa,Plains IA KS MN MO NE ND SD,Four or more years,Private not-for-profit,63.0,57.0,Orange City,IA,51041,-96.05877199999999,42.999007
371,Northwestern College,1221.0,929.0,284.0,17.0,91.0,423.0,605.0,470.0,580.0,420.0,560.0,21.0,27.0,Iowa,Plains IA KS MN MO NE ND SD,Four or more years,Private not-for-profit,63.0,57.0,Bridgeview,IL,60455,-87.79740600000001,41.751723999999996
372,Saint Ambrose University,2897.0,2786.0,562.0,0.0,97.0,0.0,0.0,0.0,0.0,0.0,0.0,20.0,25.0,Iowa,Plains IA KS MN MO NE ND SD,Four or more years,Private not-for-profit,61.0,59.0,Davenport,IA,52803-2898,-90.579854,41.54065
373,Simpson College,1302.0,1146.0,377.0,5.0,99.0,0.0,0.0,0.0,0.0,0.0,0.0,21.0,27.0,Iowa,Plains IA KS MN MO NE ND SD,Four or more years,Private not-for-profit,65.0,56.0,Indianola,IA,50125,-93.56347099999999,41.365503000000004
374,Upper Iowa University,1229.0,715.0,218.0,1.0,91.0,0.0,0.0,0.0,0.0,0.0,0.0,19.0,24.0,Iowa,Plains IA KS MN MO NE ND SD,Four or more years,Private not-for-profit,40.0,60.0,Fayette,IA,52142-1857,-91.799543,42.838283000000004
375,Wartburg College,2268.0,1761.0,451.0,11.0,87.0,380.0,540.0,440.0,590.0,380.0,520.0,21.0,26.0,Iowa,Plains IA KS MN MO NE ND SD,Four or more years,Private not-for-profit,63.0,53.0,Waverly,IA,50677-0903,-92.483387,42.7277
376,William Penn University,836.0,482.0,264.0,17.0,86.0,380.0,500.0,380.0,550.0,0.0,0.0,17.0,22.0,Iowa,Plains IA KS MN MO NE ND SD,Four or more years,Private not-for-profit,34.0,50.0,Oskaloosa,IA,52577,-92.647095,41.310111
377,Baker University,870.0,756.0,235.0,9.0,100.0,440.0,545.0,490.0,600.0,410.0,555.0,21.0,26.0,Kansas,Plains IA KS MN MO NE ND SD,Four or more years,Private not-for-profit,52.0,57.0,Baldwin City,KS,66006-0065,-95.18734599999999,38.778712
378,Benedictine College,3515.0,2129.0,494.0,14.0,84.0,515.0,655.0,485.0,630.0,0.0,0.0,22.0,28.0,Kansas,Plains IA KS MN MO NE ND SD,Four or more years,Private not-for-profit,59.0,52.0,Atchison,KS,66002-1499,-95.111473,39.572646
379,Bethany College,1139.0,670.0,184.0,29.0,77.0,390.0,510.0,430.0,510.0,380.0,470.0,18.0,23.0,Kansas,Plains IA KS MN MO NE ND SD,Four or more years,Private not-for-profit,39.0,40.0,Lindsborg,KS,67456-1897,-97.67367,38.580597999999995
380,Bethany College,1139.0,670.0,184.0,29.0,77.0,390.0,510.0,430.0,510.0,380.0,470.0,18.0,23.0,Kansas,Plains IA KS MN MO NE ND SD,Four or more years,Private not-for-profit,39.0,40.0,Bethany,WV,26032,-80.560056,40.205819
381,Bethany College,1736.0,859.0,185.0,62.0,56.0,380.0,530.0,390.0,510.0,370.0,490.0,17.0,24.0,West Virginia,Southeast AL AR FL GA KY LA MS NC SC TN VA WV,Four or more years,Private not-for-profit,48.0,44.0,Lindsborg,KS,67456-1897,-97.67367,38.580597999999995
382,Bethany College,1736.0,859.0,185.0,62.0,56.0,380.0,530.0,390.0,510.0,370.0,490.0,17.0,24.0,West Virginia,Southeast AL AR FL GA KY LA MS NC SC TN VA WV,Four or more years,Private not-for-profit,48.0,44.0,Bethany,WV,26032,-80.560056,40.205819
383,Bethel College-North Newton,854.0,550.0,123.0,24.0,76.0,390.0,520.0,420.0,580.0,380.0,510.0,19.0,26.0,Kansas,Plains IA KS MN MO NE ND SD,Four or more years,Private not-for-profit,53.0,51.0,North Newton,KS,67117-1716,-97.34325600000001,38.075169
384,Central Christian College of Kansas,662.0,334.0,131.0,30.0,66.0,390.0,490.0,440.0,530.0,0.0,0.0,18.0,24.0,Kansas,Plains IA KS MN MO NE ND SD,Four or more years,Private not-for-profit,40.0,49.0,McPherson,KS,67460-5740,-97.66859699999999,38.357978
385,Donnelly College,0.0,0.0,0.0,0.0,0.0,0.0,0.0,0.0,0.0,0.0,0.0,0.0,0.0,Kansas,Plains IA KS MN MO NE ND SD,Four or more years,Private not-for-profit,0.0,69.0,Kansas City,KS,66102,-94.650677,39.112256
386,Emporia State University,2452.0,1488.0,696.0,1.0,84.0,438.0,528.0,475.0,545.0,0.0,0.0,19.0,25.0,Kansas,Plains IA KS MN MO NE ND SD,Four or more years,Public,41.0,60.0,Emporia,KS,66801-5415,-96.17902099999999,38.414784000000004
387,Fort Hays State University,2511.0,2239.0,1063.0,0.0,84.0,0.0,0.0,0.0,0.0,0.0,0.0,18.0,24.0,Kansas,Plains IA KS MN MO NE ND SD,Four or more years,Public,44.0,59.0,Hays,KS,67601-4099,-99.34250300000001,38.872156
388,Friends University,737.0,432.0,184.0,14.0,80.0,350.0,490.0,420.0,548.0,0.0,0.0,18.0,24.0,Kansas,Plains IA KS MN MO NE ND SD,Four or more years,Private not-for-profit,32.0,56.0,Wichita,KS,67213,-97.367048,37.678459000000004
389,University of Kansas,12389.0,11433.0,3771.0,0.0,98.0,0.0,0.0,0.0,0.0,0.0,0.0,22.0,28.0,Kansas,Plains IA KS MN MO NE ND SD,Four or more years,Public,62.0,50.0,Lawrence,KS,66045,-95.247567,38.958549
390,Newman University,2348.0,1050.0,165.0,8.0,90.0,460.0,610.0,420.0,530.0,430.0,560.0,20.0,27.0,Kansas,Plains IA KS MN MO NE ND SD,Four or more years,Private not-for-profit,50.0,62.0,Wichita,KS,67213-2097,-97.37768,37.672643
391,Kansas State University,9839.0,9437.0,3821.0,0.0,0.0,0.0,0.0,0.0,0.0,0.0,0.0,0.0,0.0,Kansas,Plains IA KS MN MO NE ND SD,Four or more years,Public,60.0,48.0,Manhattan,KS,66506,-96.58107700000001,39.188648
392,Kansas Wesleyan University,689.0,370.0,151.0,22.0,76.0,420.0,510.0,470.0,520.0,0.0,0.0,20.0,24.0,Kansas,Plains IA KS MN MO NE ND SD,Four or more years,Private not-for-profit,43.0,54.0,Salina,KS,67401-6146,-97.607973,38.813795
393,McPherson College,642.0,556.0,170.0,14.0,87.0,475.0,540.0,500.0,560.0,0.0,0.0,19.0,24.0,Kansas,Plains IA KS MN MO NE ND SD,Four or more years,Private not-for-profit,49.0,41.0,McPherson,KS,67460-1402,-97.642996,38.371421999999995
394,MidAmerica Nazarene University,1012.0,731.0,198.0,7.0,93.0,420.0,540.0,420.0,510.0,0.0,0.0,19.0,21.0,Kansas,Plains IA KS MN MO NE ND SD,Four or more years,Private not-for-profit,55.0,61.0,Olathe,KS,66062-1899,-94.781635,38.875615
395,Ottawa University-Ottawa,267.0,264.0,145.0,11.0,93.0,390.0,530.0,400.0,550.0,350.0,470.0,19.0,25.0,Kansas,Plains IA KS MN MO NE ND SD,Four or more years,Private not-for-profit,34.0,44.0,Ottawa,KS,66067-3399,-95.26418699999999,38.603173
396,Ottawa University-Kansas City,0.0,0.0,0.0,0.0,0.0,0.0,0.0,0.0,0.0,0.0,0.0,0.0,0.0,Kansas,Plains IA KS MN MO NE ND SD,Four or more years,Private not-for-profit,0.0,72.0,Overland Park,KS,66211,-94.63546099999999,38.932055
397,Pittsburg State University,3073.0,2427.0,1144.0,0.0,97.0,0.0,0.0,0.0,0.0,0.0,0.0,19.0,24.0,Kansas,Plains IA KS MN MO NE ND SD,Four or more years,Public,49.0,48.0,Pittsburg,KS,66762,-94.702473,37.392071
398,University of Saint Mary,767.0,361.0,109.0,34.0,80.0,410.0,500.0,440.0,520.0,0.0,0.0,19.0,24.0,Kansas,Plains IA KS MN MO NE ND SD,Four or more years,Private not-for-profit,53.0,65.0,Leavenworth,KS,66048-5082,-94.906743,39.279396000000006
399,Southwestern College,436.0,391.0,128.0,18.0,79.0,398.0,548.0,458.0,548.0,380.0,485.0,20.0,25.0,Kansas,Plains IA KS MN MO NE ND SD,Four or more years,Private not-for-profit,53.0,43.0,Chula Vista,CA,91910-7299,-116.996803,32.640281
400,Southwestern College,436.0,391.0,128.0,18.0,79.0,398.0,548.0,458.0,548.0,380.0,485.0,20.0,25.0,Kansas,Plains IA KS MN MO NE ND SD,Four or more years,Private not-for-profit,53.0,43.0,Winfield,KS,67156-2499,-96.97540500000001,37.248608000000004
401,Southwestern College,436.0,391.0,128.0,18.0,79.0,398.0,548.0,458.0,548.0,380.0,485.0,20.0,25.0,Kansas,Plains IA KS MN MO NE ND SD,Four or more years,Private not-for-profit,53.0,43.0,Santa Fe,NM,87507,-106.05258500000001,35.636241
402,Sterling College,883.0,389.0,169.0,19.0,76.0,460.0,540.0,410.0,500.0,490.0,540.0,19.0,25.0,Kansas,Plains IA KS MN MO NE ND SD,Four or more years,Private not-for-profit,42.0,46.0,Sterling,KS,67579,-98.20864399999999,38.219937
403,Sterling College,883.0,389.0,169.0,19.0,76.0,460.0,540.0,410.0,500.0,490.0,540.0,19.0,25.0,Kansas,Plains IA KS MN MO NE ND SD,Four or more years,Private not-for-profit,42.0,46.0,Craftsbury Common,VT,05827-0072,-72.382372,44.65225
404,Sterling College,49.0,46.0,20.0,0.0,0.0,0.0,0.0,0.0,0.0,0.0,0.0,0.0,0.0,Vermont,New England CT ME MA NH RI VT,Four or more years,Private not-for-profit,31.0,48.0,Sterling,KS,67579,-98.20864399999999,38.219937
405,Sterling College,49.0,46.0,20.0,0.0,0.0,0.0,0.0,0.0,0.0,0.0,0.0,0.0,0.0,Vermont,New England CT ME MA NH RI VT,Four or more years,Private not-for-profit,31.0,48.0,Craftsbury Common,VT,05827-0072,-72.382372,44.65225
406,Tabor College,517.0,380.0,159.0,27.0,83.0,400.0,510.0,420.0,530.0,0.0,0.0,18.0,27.0,Kansas,Plains IA KS MN MO NE ND SD,Four or more years,Private not-for-profit,54.0,48.0,Hillsboro,KS,67063-1799,-97.200949,38.348606
407,Washburn University,0.0,0.0,0.0,0.0,0.0,0.0,0.0,0.0,0.0,0.0,0.0,0.0,0.0,Kansas,Plains IA KS MN MO NE ND SD,Four or more years,Public,37.0,59.0,Topeka,KS,66621-0001,-95.70222199999999,39.033778000000005
408,Wichita State University,3492.0,3344.0,1412.0,6.0,86.0,460.0,590.0,477.0,622.0,0.0,0.0,21.0,26.0,Kansas,Plains IA KS MN MO NE ND SD,Four or more years,Public,46.0,52.0,Wichita,KS,67260-0124,-97.292361,37.718882
409,Alice Lloyd College,3656.0,1646.0,189.0,2.0,98.0,470.0,500.0,450.0,540.0,410.0,560.0,18.0,24.0,Kentucky,Southeast AL AR FL GA KY LA MS NC SC TN VA WV,Four or more years,Private not-for-profit,32.0,54.0,Pippa Passes,KY,41844,-82.875068,37.335087
410,Asbury University,1211.0,796.0,322.0,32.0,83.0,500.0,620.0,508.0,620.0,0.0,0.0,21.0,27.0,Kentucky,Southeast AL AR FL GA KY LA MS NC SC TN VA WV,Four or more years,Private not-for-profit,64.0,60.0,Wilmore,KY,40390-1198,-84.66260600000001,37.862029
411,Bellarmine University,4160.0,3943.0,676.0,24.0,92.0,490.0,590.0,490.0,590.0,0.0,0.0,22.0,27.0,Kentucky,Southeast AL AR FL GA KY LA MS NC SC TN VA WV,Four or more years,Private not-for-profit,66.0,64.0,Louisville,KY,40205-0671,-85.70499699999999,38.219279
412,Berea College,1620.0,551.0,397.0,15.0,80.0,510.0,630.0,513.0,610.0,483.0,610.0,22.0,26.0,Kentucky,Southeast AL AR FL GA KY LA MS NC SC TN VA WV,Four or more years,Private not-for-profit,62.0,57.0,Berea,KY,40404-2182,-84.292893,37.57202
413,Brescia University,3582.0,1612.0,150.0,9.0,83.0,0.0,0.0,460.0,550.0,0.0,0.0,19.0,24.0,Kentucky,Southeast AL AR FL GA KY LA MS NC SC TN VA WV,Four or more years,Private not-for-profit,30.0,72.0,Owensboro,KY,42301-3023,-87.111639,37.769040999999994
414,Campbellsville University,2649.0,1813.0,525.0,7.0,93.0,420.0,505.0,400.0,525.0,400.0,520.0,18.0,24.0,Kentucky,Southeast AL AR FL GA KY LA MS NC SC TN VA WV,Four or more years,Private not-for-profit,41.0,58.0,Campbellsville,KY,42718-2799,-85.348943,37.343342
415,Centre College,2533.0,1737.0,377.0,37.0,79.0,550.0,670.0,560.0,680.0,550.0,670.0,26.0,31.0,Kentucky,Southeast AL AR FL GA KY LA MS NC SC TN VA WV,Four or more years,Private not-for-profit,82.0,51.0,Danville,KY,40422-1394,-84.779392,37.645709000000004
416,University of the Cumberlands,2527.0,1801.0,488.0,15.0,89.0,420.0,520.0,440.0,530.0,0.0,0.0,19.0,25.0,Kentucky,Southeast AL AR FL GA KY LA MS NC SC TN VA WV,Four or more years,Private not-for-profit,43.0,50.0,Williamsburg,KY,40769,-84.16164599999999,36.737048
417,Eastern Kentucky University,9932.0,5961.0,2306.0,6.0,95.0,440.0,560.0,450.0,550.0,430.0,530.0,19.0,24.0,Kentucky,Southeast AL AR FL GA KY LA MS NC SC TN VA WV,Four or more years,Public,39.0,56.0,Richmond,KY,40475-3102,-84.30079599999999,37.740845
418,Georgetown College,1735.0,1426.0,238.0,8.0,95.0,410.0,610.0,460.0,560.0,0.0,0.0,21.0,26.0,Kentucky,Southeast AL AR FL GA KY LA MS NC SC TN VA WV,Four or more years,Private not-for-profit,57.0,54.0,Georgetown,KY,40324-1696,-84.55376700000001,38.207615000000004
